[start @ Sun Jun 16 12:17:17 2013]
[start @ Sun Jun 16 12:17:40 2013]
[start @ Sun Jun 16 12:18:01 2013]
[start @ Sun Jun 16 12:24:44 2013]
[start @ Sun Jun 16 13:20:23 2013]
$PMTK010,001*2E
$PMTK010,002*2D
$GPGGA,235947.000,,,,,0,0,,,M,,M,,*46
$GPRMC,235947.000,V,,,,,0.00,0.00,050180,,,N*4F
$GPGGA,235947.200,,,,,0,0,,,M,,M,,*44
$GPRMC,235947.200,V,,,,,0.00,0.00,050180,,,N*4D
$GPGGA,235947.399,,,,,0,0,,,M,,M,,*45
$GPRMC,235947.399,V,,,,,0.00,0.00,050180,,,N*4C
$GPGGA,235947.600,,,,,0,0,,,M,,M,,*40
$GPRMC,235947.600,V,,,,,0.00,0.00,050180,,,N*49
$GPGGA,235947.799,,,,,0,0,,,M,,M,,*41
$GPRMC,235947.799,V,,,,,0.00,0.00,050180,,,N*48
$GPGGA,235948.000,,,,,0,0,,,M,,M,,*49
$GPRMC,235948.000,V,,,,,0.00,0.00,050180,,,N*40
$GPGGA,235948.200,,,,,0,0,,,M,,M,,*4B
$GPRMC,235948.200,V,,,,,0.00,0.00,050180,,,N*42
$GPGGA,235948.400,,,,,0,0,,,M,,M,,*4D
$GPRMC,235948.400,V,,,,,0.00,0.00,050180,,,N*44
$GPGGA,235948.599,,,,,0,0,,,M,,M,,*4C
$GPRMC,235948.599,V,,,,,0.00,0.00,050180,,,N*45
$GPGGA,235948.799,,,,,0,0,,,M,,M,,*4E
$GPRMC,235948.799,V,,,,,0.00,0.00,050180,,,N*47
$GPGGA,235949.000,,,,,0,0,,,M,,M,,*48
$GPRMC,235949.000,V,,,,,0.00,0.00,050180,,,N*41
$GPGGA,235949.200,,,,,0,0,,,M,,M,,*4A
$GPRMC,235949.200,V,,,,,0.00,0.00,050180,,,N*43
$GPGGA,235949.400,,,,,0,0,,,M,,M,,*4C
$GPRMC,235949.400,V,,,,,0.00,0.00,050180,,,N*45
$GPGGA,235949.599,,,,,0,0,,,M,,M,,*4D
$GPRMC,235949.599,V,,,,,0.00,0.00,050180,,,N*44
$GPGGA,235949.799,,,,,0,0,,,M,,M,,*4F
$GPRMC,235949.799,V,,,,,0.00,0.00,050180,,,N*46
$GPGGA,235950.000,,,,,0,0,,,M,,M,,*40
$GPRMC,235950.000,V,,,,,0.00,0.00,050180,,,N*49
$GPGGA,235950.200,,,,,0,0,,,M,,M,,*42
$GPRMC,235950.200,V,,,,,0.00,0.00,050180,,,N*4B
$GPGGA,235950.400,,,,,0,0,,,M,,M,,*44
$GPRMC,235950.400,V,,,,,0.00,0.00,050180,,,N*4D
$GPGGA,235950.599,,,,,0,0,,,M,,M,,*45
$GPRMC,235950.599,V,,,,,0.00,0.00,050180,,,N*4C
$GPGGA,235950.799,,,,,0,0,,,M,,M,,*47
$GPRMC,235950.799,V,,,,,0.00,0.00,050180,,,N*4E
$GPGGA,235951.000,,,,,0,0,,,M,,M,,*41
$GPRMC,235951.000,V,,,,,0.00,0.00,050180,,,N*48
$GPGGA,235951.200,,,,,0,0,,,M,,M,,*43
$GPRMC,235951.200,V,,,,,0.00,0.00,050180,,,N*4A
$GPGGA,235951.400,,,,,0,0,,,M,,M,,*45
$GPRMC,235951.400,V,,,,,0.00,0.00,050180,,,N*4C
$GPGGA,235951.599,,,,,0,0,,,M,,M,,*44
$GPRMC,235951.599,V,,,,,0.00,0.00,050180,,,N*4D
$GPGGA,235951.799,,,,,0,0,,,M,,M,,*46
$GPRMC,235951.799,V,,,,,0.00,0.00,050180,,,N*4F
$GPGGA,235952.000,,,,,0,0,,,M,,M,,*42
$GPRMC,235952.000,V,,,,,0.00,0.00,050180,,,N*4B
$GPGGA,235952.199,,,,,0,0,,,M,,M,,*43
$GPRMC,235952.199,V,,,,,0.00,0.00,050180,,,N*4A
$GPGGA,235952.400,,,,,0,0,,,M,,M,,*46
$GPRMC,235952.400,V,,,,,0.00,0.00,050180,,,N*4F
$GPGGA,235952.473,,,,,0,0,,,M,,M,,*42
$GPRMC,235952.473,V,,,,,0.00,0.00,050180,,,N*4B
$GPGGA,235952.673,,,,,0,0,,,M,,M,,*40
$GPRMC,235952.673,V,,,,,0.00,0.00,050180,,,N*49
$GPGGA,235952.872,,,,,0,0,,,M,,M,,*4F
$GPRMC,235952.872,V,,,,,0.00,0.00,050180,,,N*46
$GPGGA,235953.073,,,,,0,0,,,M,,M,,*47
$GPRMC,235953.073,V,,,,,0.00,0.00,050180,,,N*4E
$GPGGA,235953.272,,,,,0,0,,,M,,M,,*44
$GPRMC,235953.272,V,,,,,0.00,0.00,050180,,,N*4D
$GPGGA,235953.473,,,,,0,0,,,M,,M,,*43
$GPRMC,235953.473,V,,,,,0.00,0.00,050180,,,N*4A
$GPGGA,235953.673,,,,,0,0,,,M,,M,,*41
$GPRMC,235953.673,V,,,,,0.00,0.00,050180,,,N*48
$GPGGA,182027.498,,,,,0,0,,,M,,M,,*43
$GPRMC,182027.498,V,,,,,0.00,0.00,060180,,,N*49
$GPGGA,182027.698,,,,,0,0,,,M,,M,,*41
$GPRMC,182027.698,V,,,,,0.00,0.00,060180,,,N*4B
$GPGGA,182027.899,,,,,0,0,,,M,,M,,*4E
$GPRMC,182027.899,V,,,,,0.00,0.00,060180,,,N*44
$GPGGA,182028.099,,,,,0,0,,,M,,M,,*49
$GPRMC,182028.099,V,,,,,0.00,0.00,060180,,,N*43
$GPGGA,182028.298,,,,,0,0,,,M,,M,,*4A
$GPRMC,182028.298,V,,,,,0.00,0.00,060180,,,N*40
$GPGGA,182028.498,,,,,0,0,,,M,,M,,*4C
$GPRMC,182028.498,V,,,,,0.00,0.00,060180,,,N*46
$GPGGA,182028.698,,,,,0,0,,,M,,M,,*4E
$GPRMC,182028.698,V,,,,,0.00,0.00,060180,,,N*44
$GPGGA,182028.899,,,,,0,0,,,M,,M,,*41
$GPRMC,182028.899,V,,,,,0.00,0.00,060180,,,N*4B
$GPGGA,182029.099,,,,,0,0,,,M,,M,,*48
$GPRMC,182029.099,V,,,,,0.00,0.00,060180,,,N*42
$GPGGA,182029.298,,,,,0,0,,,M,,M,,*4B
$GPRMC,182029.298,V,,,,,0.00,0.00,060180,,,N*41
$GPGGA,182029.498,,,,,0,0,,,M,,M,,*4D
$GPRMC,182029.498,V,,,,,0.00,0.00,060180,,,N*47
$GPGGA,182029.698,,,,,0,0,,,M,,M,,*4F
$GPRMC,182029.698,V,,,,,0.00,0.00,060180,,,N*45
$GPGGA,182029.899,,,,,0,0,,,M,,M,,*40
$GPRMC,182029.899,V,,,,,0.00,0.00,060180,,,N*4A
$GPGGA,182030.099,,,,,0,0,,,M,,M,,*40
$GPRMC,182030.099,V,,,,,0.00,0.00,060180,,,N*4A
$GPGGA,182030.298,,,,,0,0,,,M,,M,,*43
$GPRMC,182030.298,V,,,,,0.00,0.00,060180,,,N*49
$GPGGA,182030.498,,,,,0,0,,,M,,M,,*45
$GPRMC,182030.498,V,,,,,0.00,0.00,060180,,,N*4F
$GPGGA,182030.698,,,,,0,0,,,M,,M,,*47
$GPRMC,182030.698,V,,,,,0.00,0.00,060180,,,N*4D
$GPGGA,182030.899,,,,,0,0,,,M,,M,,*48
$GPRMC,182030.899,V,,,,,0.00,0.00,060180,,,N*42
$GPGGA,182031.099,,,,,0,0,,,M,,M,,*41
$GPRMC,182031.099,V,,,,,0.00,0.00,060180,,,N*4B
$GPGGA,182031.298,,,,,0,0,,,M,,M,,*42
$GPRMC,182031.298,V,,,,,0.00,0.00,060180,,,N*48
$GPGGA,182031.498,,,,,0,0,,,M,,M,,*44
$GPRMC,182031.498,V,,,,,0.00,0.00,060180,,,N*4E
$GPGGA,182031.698,,,,,0,0,,,M,,M,,*46
$GPRMC,182031.698,V,,,,,0.00,0.00,060180,,,N*4C
$GPGGA,182031.899,,,,,0,0,,,M,,M,,*49
$GPRMC,182031.899,V,,,,,0.00,0.00,060180,,,N*43
$GPGGA,182032.099,,,,,0,0,,,M,,M,,*42
$GPRMC,182032.099,V,,,,,0.00,0.00,060180,,,N*48
$GPGGA,182032.298,,,,,0,0,,,M,,M,,*41
$GPRMC,182032.298,V,,,,,0.00,0.00,060180,,,N*4B
$GPGGA,182032.498,,,,,0,0,,,M,,M,,*47
$GPRMC,182032.498,V,,,,,0.00,0.00,060180,,,N*4D
$GPGGA,182032.698,,,,,0,0,,,M,,M,,*45
$GPRMC,182032.698,V,,,,,0.00,0.00,060180,,,N*4F
$GPGGA,182032.899,,,,,0,0,,,M,,M,,*4A
$GPRMC,182032.899,V,,,,,0.00,0.00,060180,,,N*40
$GPGGA,182033.099,,,,,0,0,,,M,,M,,*43
$GPRMC,182033.099,V,,,,,0.00,0.00,060180,,,N*49
[start @ Sun Jun 16 13:33:02 2013]
$PMTK010,001*2E
$PMTK010,002*2D
$GPGGA,235947.799,,,,,0,0,,,M,,M,,*41
$GPRMC,235947.799,V,,,,,0.00,0.00,050180,,,N*48
$GPGGA,235955.199,,,,,0,0,,,M,,M,,*44
$GPRMC,235955.199,V,,,,,0.00,0.00,050180,,,N*4D
$GPGGA,183322.101,,,,,0,0,,,M,,M,,*41
$GPRMC,183322.101,V,,,,,0.00,0.00,060180,,,N*4B
$GPGGA,183322.702,,,,,0,0,,,M,,M,,*44
$GPRMC,183322.702,V,,,,,0.00,0.00,060180,,,N*4E
$GPGGA,183322.902,,,,,0,0,,,M,,M,,*4A
$GPRMC,183322.902,V,,,,,0.00,0.00,060180,,,N*40
$GPGGA,183326.498,,,,,0,0,,,M,,M,,*40
$GPRMC,183326.498,V,,,,,0.00,0.00,060180,,,N*4A
$GPGGA,183329.898,,,,,0,0,,,M,,M,,*43
$GPRMC,183329.898,V,,,,,0.00,0.00,060180,,,N*49
$GPGGA,183330.097,,,,,0,0,,,M,,M,,*4C
$GPRMC,183330.097,V,,,,,0.00,0.00,060180,,,N*46
$GPRMC,183416.200,A,3310.0649,N,09642.7669,W,0.03,0.00,160613,,,A*7A
$GPGGA,183418.400,3310.0649,N,09642.7670,W,1,6,1.97,225.7,M,-24.2,M,,*6A
$GPRMC,183418.400,A,3310.0649,N,09642.7670,W,0.02,0.00,160613,,,A*7B
$GPRMC,183424.800,A,3310.0650,N,09642.7671,W,0.02,0.00,160613,,,A*71
$GPGGA,183434.800,3310.0647,N,09642.7663,W,1,7,1.34,223.9,M,-24.2,M,,*64
$GPRMC,183434.800,A,3310.0647,N,09642.7663,W,0.03,0.00,160613,,,A*74
$GPRMC,183436.000,A,3310.0647,N,09642.7663,W,0.02,0.00,160613,,,A*7F
$GPRMC,183447.600,A,3310.0647,N,09642.7663,W,0.02,0.00,160613,,,A*7F
$GPGGA,183451.600,3310.0647,N,09642.7663,W,1,7,1.34,223.9,M,-24.2,M,,*69
$GPRMC,183451.600,A,3310.0647,N,09642.7663,W,0.03,0.00,160613,,,A*79
$GPGGA,183458.000,3310.0647,N,09642.7663,W,1,7,1.34,223.8,M,-24.2,M,,*67
$GPRMC,183458.000,A,3310.0647,N,09642.7663,W,0.01,0.00,160613,,,A*74
$GPRMC,183458.200,A,3310.0647,N,09642.7663,W,0.01,0.00,160613,,,A*76
$GPRMC,183458.400,A,3310.0647,N,09642.7663,W,0.02,0.00,160613,,,A*73
$GPRMC,183459.600,A,3310.0647,N,09642.7663,W,0.01,0.00,160613,,,A*73
$GPRMC,183500.000,A,3310.0647,N,09642.7663,W,0.04,0.00,160613,,,A*7D
$GPRMC,183500.400,A,3310.0647,N,09642.7663,W,0.03,0.00,160613,,,A*7E
$GPGGA,183500.800,3310.0647,N,09642.7663,W,1,7,1.34,223.8,M,-24.2,M,,*63
$GPRMC,183500.800,A,3310.0647,N,09642.7663,W,0.02,0.00,160613,,,A*73
$GPGGA,183501.000,3310.0647,N,09642.7663,W,1,7,1.34,223.8,M,-24.2,M,,*6A
$GPRMC,183501.000,A,3310.0647,N,09642.7663,W,0.02,0.00,160613,,,A*7A
$GPGGA,183501.200,3310.0647,N,09642.7663,W,1,7,1.34,223.8,M,-24.2,M,,*68
$GPRMC,183501.200,A,3310.0647,N,09642.7663,W,0.04,0.00,160613,,,A*7E
$GPGGA,183501.400,3310.0647,N,09642.7663,W,1,7,1.34,223.8,M,-24.2,M,,*6E
$GPRMC,183501.400,A,3310.0647,N,09642.7663,W,0.02,0.00,160613,,,A*7E
$GPGGA,183501.600,3310.0647,N,09642.7663,W,1,7,1.34,223.8,M,-24.2,M,,*6C
$GPRMC,183501.600,A,3310.0647,N,09642.7663,W,0.02,0.00,160613,,,A*7C
$GPGGA,183501.800,3310.0647,N,09642.7663,W,1,7,1.34,223.8,M,-24.2,M,,*62
$GPRMC,183501.800,A,3310.0647,N,09642.7663,W,0.02,0.00,160613,,,A*72
$GPGGA,183502.200,3310.0647,N,09642.7663,W,1,7,1.34,223.8,M,-24.2,M,,*6B
$GPRMC,183502.200,A,3310.0647,N,09642.7663,W,0.02,0.00,160613,,,A*7B
$GPGGA,183502.400,3310.0647,N,09642.7663,W,1,7,1.34,223.8,M,-24.2,M,,*6D
$GPRMC,183502.400,A,3310.0647,N,09642.7663,W,0.03,0.00,160613,,,A*7C
$GPGGA,183502.600,3310.0647,N,09642.7663,W,1,7,1.34,223.8,M,-24.2,M,,*6F
$GPRMC,183502.600,A,3310.0647,N,09642.7663,W,0.01,0.00,160613,,,A*7C
$GPGGA,183502.800,3310.0647,N,09642.7663,W,1,7,1.34,223.8,M,-24.2,M,,*61
$GPRMC,183502.800,A,3310.0647,N,09642.7663,W,0.00,0.00,160613,,,A*73
$GPGGA,183503.000,3310.0647,N,09642.7663,W,1,7,1.34,223.8,M,-24.2,M,,*68
$GPRMC,183503.000,A,3310.0647,N,09642.7663,W,0.01,0.00,160613,,,A*7B
$GPGGA,183503.200,3310.0647,N,09642.7663,W,1,7,1.34,223.8,M,-24.2,M,,*6A
$GPRMC,183503.200,A,3310.0647,N,09642.7663,W,0.03,0.00,160613,,,A*7B
$GPGGA,183503.800,3310.0647,N,09642.7663,W,1,7,1.95,223.8,M,-24.2,M,,*6B
$GPRMC,183503.800,A,3310.0647,N,09642.7663,W,0.00,0.00,160613,,,A*72
$GPGGA,183504.000,3310.0647,N,09642.7663,W,1,7,1.34,223.8,M,-24.2,M,,*6F
$GPRMC,183504.000,A,3310.0647,N,09642.7663,W,0.03,0.00,160613,,,A*7E
$GPGGA,183504.200,3310.0647,N,09642.7663,W,1,7,1.34,223.8,M,-24.2,M,,*6D
$GPRMC,183504.200,A,3310.0647,N,09642.7663,W,0.02,0.00,160613,,,A*7D
$GPGGA,183504.400,3310.0647,N,09642.7663,W,1,7,1.34,223.8,M,-24.2,M,,*6B
$GPRMC,183504.400,A,3310.0647,N,09642.7663,W,0.02,0.00,160613,,,A*7B
$GPGGA,183504.600,3310.0647,N,09642.7663,W,1,7,1.34,223.8,M,-24.2,M,,*69
$GPRMC,183504.600,A,3310.0647,N,09642.7663,W,0.01,0.00,160613,,,A*7A
$GPGGA,183504.800,3310.0647,N,09642.7663,W,1,7,1.34,223.8,M,-24.2,M,,*67
$GPRMC,183504.800,A,3310.0647,N,09642.7663,W,0.03,0.00,160613,,,A*76
$GPGGA,183505.000,3310.0647,N,09642.7663,W,1,7,1.34,223.8,M,-24.2,M,,*6E
$GPRMC,183505.000,A,3310.0647,N,09642.7663,W,0.02,0.00,160613,,,A*7E
$GPGGA,183505.200,3310.0647,N,09642.7663,W,1,7,1.34,223.8,M,-24.2,M,,*6C
$GPRMC,183505.200,A,3310.0647,N,09642.7663,W,0.03,0.00,160613,,,A*7D
$GPGGA,183505.400,3310.0647,N,09642.7663,W,1,7,1.34,223.8,M,-24.2,M,,*6A
$GPRMC,183505.400,A,3310.0647,N,09642.7663,W,0.04,0.00,160613,,,A*7C
$GPGGA,183505.600,3310.0647,N,09642.7663,W,1,7,1.34,223.8,M,-24.2,M,,*68
$GPRMC,183505.600,A,3310.0647,N,09642.7663,W,0.02,0.00,160613,,,A*78
$GPGGA,183506.000,3310.0647,N,09642.7663,W,1,7,1.34,223.8,M,-24.2,M,,*6D
$GPRMC,183506.000,A,3310.0647,N,09642.7663,W,0.02,0.00,160613,,,A*7D
$GPGGA,183506.200,3310.0647,N,09642.7663,W,1,7,1.34,223.8,M,-24.2,M,,*6F
$GPRMC,183506.200,A,3310.0647,N,09642.7663,W,0.03,0.00,160613,,,A*7E
$GPGGA,183506.400,3310.0647,N,09642.7663,W,1,7,1.34,223.8,M,-24.2,M,,*69
$GPRMC,183506.400,A,3310.0647,N,09642.7663,W,0.03,0.00,160613,,,A*78
$GPGGA,183506.600,3310.0647,N,09642.7663,W,1,7,1.34,223.8,M,-24.2,M,,*6B
$GPRMC,183506.600,A,3310.0647,N,09642.7663,W,0.04,0.00,160613,,,A*7D
$GPGGA,183506.800,3310.0647,N,09642.7663,W,1,7,1.34,223.8,M,-24.2,M,,*65
$GPRMC,183506.800,A,3310.0647,N,09642.7663,W,0.01,0.00,160613,,,A*76
$GPGGA,183507.000,3310.0647,N,09642.7663,W,1,7,1.34,223.8,M,-24.2,M,,*6C
$GPRMC,183507.000,A,3310.0647,N,09642.7663,W,0.01,0.00,160613,,,A*7F
$GPGGA,183507.200,3310.0647,N,09642.7663,W,1,7,1.34,223.8,M,-24.2,M,,*6E
$GPRMC,183507.200,A,3310.0647,N,09642.7663,W,0.03,0.00,160613,,,A*7F
$GPGGA,183507.400,3310.0647,N,09642.7663,W,1,7,1.34,223.8,M,-24.2,M,,*68
$GPRMC,183507.400,A,3310.0647,N,09642.7663,W,0.02,0.00,160613,,,A*78
$GPGGA,183507.600,3310.0647,N,09642.7663,W,1,7,1.34,223.8,M,-24.2,M,,*6A
$GPRMC,183507.600,A,3310.0647,N,09642.7663,W,0.01,0.00,160613,,,A*79
$GPGGA,183507.800,3310.0647,N,09642.7663,W,1,7,1.34,223.8,M,-24.2,M,,*64
$GPRMC,183507.800,A,3310.0647,N,09642.7663,W,0.02,0.00,160613,,,A*74
$GPGGA,183508.000,3310.0647,N,09642.7663,W,1,7,1.34,223.8,M,-24.2,M,,*63
$GPRMC,183508.000,A,3310.0647,N,09642.7663,W,0.01,0.00,160613,,,A*70
$GPGGA,183508.200,3310.0647,N,09642.7663,W,1,7,1.34,223.8,M,-24.2,M,,*61
$GPRMC,183508.200,A,3310.0647,N,09642.7663,W,0.03,0.00,160613,,,A*70
$GPGGA,183508.400,3310.0647,N,09642.7663,W,1,7,1.34,223.8,M,-24.2,M,,*67
$GPRMC,183508.400,A,3310.0647,N,09642.7663,W,0.03,0.00,160613,,,A*76
$GPGGA,183508.600,3310.0647,N,09642.7663,W,1,7,1.34,223.8,M,-24.2,M,,*65
$GPRMC,183508.600,A,3310.0647,N,09642.7663,W,0.04,0.00,160613,,,A*73
$GPGGA,183508.800,3310.0647,N,09642.7663,W,1,7,1.34,223.8,M,-24.2,M,,*6B
$GPRMC,183508.800,A,3310.0647,N,09642.7663,W,0.01,0.00,160613,,,A*78
$GPGGA,183509.000,3310.0647,N,09642.7663,W,1,7,1.34,223.8,M,-24.2,M,,*62
$GPRMC,183509.000,A,3310.0647,N,09642.7663,W,0.04,0.00,160613,,,A*74
$GPGGA,183509.200,3310.0647,N,09642.7663,W,1,7,1.34,223.8,M,-24.2,M,,*60
$GPRMC,183509.200,A,3310.0647,N,09642.7663,W,0.01,0.00,160613,,,A*73
$GPGGA,183509.400,3310.0647,N,09642.7663,W,1,7,1.34,223.8,M,-24.2,M,,*66
$GPRMC,183509.400,A,3310.0647,N,09642.7663,W,0.01,0.00,160613,,,A*75
$GPGGA,183509.600,3310.0647,N,09642.7663,W,1,7,1.34,223.8,M,-24.2,M,,*64
$GPRMC,183509.600,A,3310.0647,N,09642.7663,W,0.01,0.00,160613,,,A*77
$GPGGA,183509.800,3310.0647,N,09642.7663,W,1,7,1.34,223.8,M,-24.2,M,,*6A
$GPRMC,183509.800,A,3310.0647,N,09642.7663,W,0.05,0.00,160613,,,A*7D
$GPGGA,183510.000,3310.0647,N,09642.7663,W,1,7,1.34,223.8,M,-24.2,M,,*6A
$GPRMC,183510.000,A,3310.0647,N,09642.7663,W,0.02,0.00,160613,,,A*7A
$GPGGA,183510.200,3310.0647,N,09642.7663,W,1,7,1.34,223.8,M,-24.2,M,,*68
$GPRMC,183510.200,A,3310.0647,N,09642.7663,W,0.02,0.00,160613,,,A*78
$GPGGA,183510.400,3310.0647,N,09642.7663,W,1,7,1.34,223.8,M,-24.2,M,,*6E
$GPRMC,183510.400,A,3310.0647,N,09642.7663,W,0.04,0.00,160613,,,A*78
$GPGGA,183510.600,3310.0647,N,09642.7663,W,1,7,1.95,223.8,M,-24.2,M,,*67
$GPRMC,183510.600,A,3310.0647,N,09642.7663,W,0.04,0.00,160613,,,A*7A
$GPGGA,183510.800,3310.0647,N,09642.7663,W,1,7,1.34,223.8,M,-24.2,M,,*62
$GPRMC,183510.800,A,3310.0647,N,09642.7663,W,0.05,0.00,160613,,,A*75
$GPGGA,183511.000,3310.0647,N,09642.7663,W,1,7,1.95,223.8,M,-24.2,M,,*60
$GPRMC,183511.000,A,3310.0647,N,09642.7663,W,0.02,0.00,160613,,,A*7B
$GPGGA,183511.200,3310.0647,N,09642.7663,W,1,7,1.95,223.8,M,-24.2,M,,*62
$GPRMC,183511.200,A,3310.0647,N,09642.7663,W,0.03,0.00,160613,,,A*78
$GPGGA,183511.400,3310.0647,N,09642.7663,W,1,7,1.34,223.8,M,-24.2,M,,*6F
$GPRMC,183511.400,A,3310.0647,N,09642.7663,W,0.00,0.00,160613,,,A*7D
$GPGGA,183511.600,3310.0647,N,09642.7663,W,1,7,1.34,223.8,M,-24.2,M,,*6D
$GPRMC,183511.600,A,3310.0647,N,09642.7663,W,0.00,0.00,160613,,,A*7F
$GPGGA,183511.800,3310.0647,N,09642.7663,W,1,7,1.34,223.8,M,-24.2,M,,*63
$GPRMC,183511.800,A,3310.0647,N,09642.7663,W,0.05,0.00,160613,,,A*74
$GPGGA,183512.000,3310.0647,N,09642.7663,W,1,7,1.34,223.8,M,-24.2,M,,*68
$GPRMC,183512.000,A,3310.0647,N,09642.7663,W,0.02,0.00,160613,,,A*78
$GPGGA,183512.200,3310.0647,N,09642.7663,W,1,7,1.34,223.8,M,-24.2,M,,*6A
$GPRMC,183512.200,A,3310.0647,N,09642.7663,W,0.01,0.00,160613,,,A*79
$GPGGA,183512.400,3310.0647,N,09642.7663,W,1,7,1.34,223.8,M,-24.2,M,,*6C
$GPRMC,183512.400,A,3310.0647,N,09642.7663,W,0.02,0.00,160613,,,A*7C
$GPGGA,183512.600,3310.0647,N,09642.7663,W,1,7,1.34,223.8,M,-24.2,M,,*6E
$GPRMC,183512.600,A,3310.0647,N,09642.7663,W,0.01,0.00,160613,,,A*7D
$GPGGA,183512.800,3310.0647,N,09642.7663,W,1,7,1.34,223.8,M,-24.2,M,,*60
$GPRMC,183512.800,A,3310.0647,N,09642.7663,W,0.01,0.00,160613,,,A*73
$GPGGA,183513.000,3310.0647,N,09642.7663,W,1,7,1.34,223.8,M,-24.2,M,,*69
$GPRMC,183513.000,A,3310.0647,N,09642.7663,W,0.02,0.00,160613,,,A*79
$GPGGA,183513.200,3310.0647,N,09642.7663,W,1,7,1.34,223.8,M,-24.2,M,,*6B
$GPRMC,183513.200,A,3310.0647,N,09642.7663,W,0.01,0.00,160613,,,A*78
$GPGGA,183513.400,3310.0647,N,09642.7663,W,1,7,1.34,223.8,M,-24.2,M,,*6D
$GPRMC,183513.400,A,3310.0647,N,09642.7663,W,0.06,0.00,160613,,,A*79
$GPGGA,183513.600,3310.0647,N,09642.7662,W,1,7,1.34,223.8,M,-24.2,M,,*6E
$GPRMC,183513.600,A,3310.0647,N,09642.7662,W,0.01,0.00,160613,,,A*7D
$GPGGA,183513.800,3310.0647,N,09642.7662,W,1,7,1.34,223.8,M,-24.2,M,,*60
$GPRMC,183513.800,A,3310.0647,N,09642.7662,W,0.00,0.00,160613,,,A*72
$GPGGA,183514.000,3310.0647,N,09642.7662,W,1,7,1.34,223.8,M,-24.2,M,,*6F
$GPRMC,183514.000,A,3310.0647,N,09642.7662,W,0.02,0.00,160613,,,A*7F
$GPGGA,183514.200,3310.0647,N,09642.7662,W,1,7,1.34,223.8,M,-24.2,M,,*6D
$GPRMC,183514.200,A,3310.0647,N,09642.7662,W,0.01,0.00,160613,,,A*7E
$GPGGA,183514.400,3310.0647,N,09642.7663,W,2,7,1.34,223.8,M,-24.2,M,0000,0000*69
$GPRMC,183514.400,A,3310.0647,N,09642.7663,W,0.01,0.00,160613,,,D*7C
$GPGGA,183514.600,3310.0647,N,09642.7663,W,2,7,1.34,223.8,M,-24.2,M,0000,0000*6B
$GPRMC,183514.600,A,3310.0647,N,09642.7663,W,0.01,0.00,160613,,,D*7E
$GPGGA,183514.800,3310.0647,N,09642.7663,W,2,7,1.34,223.8,M,-24.2,M,0000,0000*65
$GPRMC,183514.800,A,3310.0647,N,09642.7663,W,0.02,0.00,160613,,,D*73
$GPGGA,183515.000,3310.0647,N,09642.7663,W,2,7,1.34,223.8,M,-24.2,M,0000,0000*6C
$GPRMC,183515.000,A,3310.0647,N,09642.7663,W,0.03,0.00,160613,,,D*7B
$GPGGA,183515.200,3310.0647,N,09642.7663,W,2,7,1.34,223.9,M,-24.2,M,0000,0000*6F
$GPRMC,183515.200,A,3310.0647,N,09642.7663,W,0.02,0.00,160613,,,D*78
$GPGGA,183515.400,3310.0647,N,09642.7663,W,2,7,1.34,223.9,M,-24.2,M,0000,0000*69
$GPRMC,183515.400,A,3310.0647,N,09642.7663,W,0.03,0.00,160613,,,D*7F
$GPGGA,183515.600,3310.0647,N,09642.7663,W,2,7,1.34,223.9,M,-24.2,M,0000,0000*6B
$GPRMC,183515.600,A,3310.0647,N,09642.7663,W,0.03,0.00,160613,,,D*7D
$GPGGA,183515.800,3310.0647,N,09642.7663,W,2,7,1.34,223.8,M,-24.2,M,0000,0000*64
$GPRMC,183515.800,A,3310.0647,N,09642.7663,W,0.02,0.00,160613,,,D*72
$GPGGA,183516.000,3310.0647,N,09642.7663,W,2,7,1.34,223.8,M,-24.2,M,0000,0000*6F
$GPRMC,183516.000,A,3310.0647,N,09642.7663,W,0.02,0.00,160613,,,D*79
$GPGGA,183516.200,3310.0647,N,09642.7663,W,2,7,1.34,223.8,M,-24.2,M,0000,0000*6D
$GPRMC,183516.200,A,3310.0647,N,09642.7663,W,0.02,0.00,160613,,,D*7B
$GPGGA,183516.400,3310.0647,N,09642.7663,W,2,7,1.34,223.8,M,-24.2,M,0000,0000*6B
$GPRMC,183516.400,A,3310.0647,N,09642.7663,W,0.02,0.00,160613,,,D*7D
$GPGGA,183516.600,3310.0647,N,09642.7663,W,2,7,1.34,223.8,M,-24.2,M,0000,0000*69
$GPRMC,183516.600,A,3310.0647,N,09642.7663,W,0.02,0.00,160613,,,D*7F
$GPGGA,183516.800,3310.0647,N,09642.7663,W,2,7,1.34,223.7,M,-24.2,M,0000,0000*68
$GPRMC,183516.800,A,3310.0647,N,09642.7663,W,0.03,0.00,160613,,,D*70
$GPGGA,183517.000,3310.0647,N,09642.7663,W,2,7,1.34,223.7,M,-24.2,M,0000,0000*61
$GPRMC,183517.000,A,3310.0647,N,09642.7663,W,0.03,0.00,160613,,,D*79
$GPGGA,183517.200,3310.0647,N,09642.7663,W,2,7,1.34,223.7,M,-24.2,M,0000,0000*63
$GPRMC,183517.200,A,3310.0647,N,09642.7663,W,0.03,0.00,160613,,,D*7B
$GPGGA,183517.400,3310.0647,N,09642.7663,W,2,7,1.34,223.7,M,-24.2,M,0000,0000*65
$GPRMC,183517.400,A,3310.0647,N,09642.7663,W,0.03,0.00,160613,,,D*7D
$GPGGA,183517.600,3310.0647,N,09642.7663,W,2,7,1.34,223.7,M,-24.2,M,0000,0000*67
$GPRMC,183517.600,A,3310.0647,N,09642.7663,W,0.04,0.00,160613,,,D*78
$GPGGA,183517.800,3310.0647,N,09642.7663,W,2,7,1.34,223.7,M,-24.2,M,0000,0000*69
$GPRMC,183517.800,A,3310.0647,N,09642.7663,W,0.03,0.00,160613,,,D*71
$GPGGA,183518.000,3310.0647,N,09642.7663,W,2,7,1.34,223.7,M,-24.2,M,0000,0000*6E
$GPRMC,183518.000,A,3310.0647,N,09642.7663,W,0.04,0.00,160613,,,D*71
$GPGGA,183518.200,3310.0647,N,09642.7663,W,2,7,1.34,223.7,M,-24.2,M,0000,0000*6C
$GPRMC,183518.200,A,3310.0647,N,09642.7663,W,0.03,0.00,160613,,,D*74
$GPGGA,183518.400,3310.0647,N,09642.7663,W,2,7,1.34,223.7,M,-24.2,M,0000,0000*6A
$GPRMC,183518.400,A,3310.0647,N,09642.7663,W,0.02,0.00,160613,,,D*73
$GPGGA,183518.600,3310.0647,N,09642.7663,W,2,7,1.34,223.7,M,-24.2,M,0000,0000*68
$GPRMC,183518.600,A,3310.0647,N,09642.7663,W,0.02,0.00,160613,,,D*71
$GPGGA,183518.800,3310.0647,N,09642.7663,W,2,7,1.34,223.7,M,-24.2,M,0000,0000*66
$GPRMC,183518.800,A,3310.0647,N,09642.7663,W,0.02,0.00,160613,,,D*7F
$GPGGA,183519.000,3310.0647,N,09642.7663,W,2,7,1.95,223.7,M,-24.2,M,0000,0000*64
$GPRMC,183519.000,A,3310.0647,N,09642.7663,W,0.02,0.00,160613,,,D*76
$GPGGA,183519.200,3310.0647,N,09642.7663,W,2,7,1.34,223.7,M,-24.2,M,0000,0000*6D
$GPRMC,183519.200,A,3310.0647,N,09642.7663,W,0.03,0.00,160613,,,D*75
$GPGGA,183519.400,3310.0647,N,09642.7663,W,2,7,1.34,223.7,M,-24.2,M,0000,0000*6B
$GPRMC,183519.400,A,3310.0647,N,09642.7663,W,0.03,0.00,160613,,,D*73
$GPGGA,183519.600,3310.0647,N,09642.7663,W,2,7,1.34,223.7,M,-24.2,M,0000,0000*69
$GPRMC,183519.600,A,3310.0647,N,09642.7663,W,0.05,0.00,160613,,,D*77
$GPGGA,183519.800,3310.0647,N,09642.7663,W,2,7,1.34,223.7,M,-24.2,M,0000,0000*67
$GPRMC,183519.800,A,3310.0647,N,09642.7663,W,0.05,0.00,160613,,,D*79
$GPGGA,183520.000,3310.0647,N,09642.7663,W,2,7,1.34,223.7,M,-24.2,M,0000,0000*65
$GPRMC,183520.000,A,3310.0647,N,09642.7663,W,0.06,0.00,160613,,,D*78
$GPGGA,183520.200,3310.0647,N,09642.7663,W,2,7,1.34,223.7,M,-24.2,M,0000,0000*67
$GPRMC,183520.200,A,3310.0647,N,09642.7663,W,0.06,0.00,160613,,,D*7A
$GPGGA,183520.400,3310.0647,N,09642.7663,W,2,7,1.34,223.6,M,-24.2,M,0000,0000*60
$GPRMC,183520.400,A,3310.0647,N,09642.7663,W,0.05,0.00,160613,,,D*7F
$GPGGA,183520.600,3310.0647,N,09642.7663,W,2,7,1.34,223.6,M,-24.2,M,0000,0000*62
$GPRMC,183520.600,A,3310.0647,N,09642.7663,W,0.05,0.00,160613,,,D*7D
$GPGGA,183521.000,3310.0647,N,09642.7664,W,2,7,1.34,223.6,M,-24.2,M,0000,0000*62
$GPRMC,183521.000,A,3310.0647,N,09642.7664,W,0.04,0.00,160613,,,D*7C
$GPGGA,183521.200,3310.0647,N,09642.7664,W,2,7,1.34,223.6,M,-24.2,M,0000,0000*60
$GPRMC,183521.200,A,3310.0647,N,09642.7664,W,0.05,0.00,160613,,,D*7F
$GPGGA,183521.400,3310.0647,N,09642.7664,W,2,7,1.34,223.6,M,-24.2,M,0000,0000*66
$GPRMC,183521.400,A,3310.0647,N,09642.7664,W,0.05,0.00,160613,,,D*79
$GPGGA,183521.600,3310.0647,N,09642.7664,W,2,7,1.34,223.6,M,-24.2,M,0000,0000*64
$GPRMC,183521.600,A,3310.0647,N,09642.7664,W,0.05,0.00,160613,,,D*7B
$GPGGA,183521.800,3310.0647,N,09642.7664,W,2,7,1.34,223.6,M,-24.2,M,0000,0000*6A
$GPRMC,183521.800,A,3310.0647,N,09642.7664,W,0.05,0.00,160613,,,D*75
$GPGGA,183522.200,3310.0647,N,09642.7664,W,2,7,1.34,223.6,M,-24.2,M,0000,0000*63
$GPRMC,183522.200,A,3310.0647,N,09642.7664,W,0.05,0.00,160613,,,D*7C
$GPGGA,183522.400,3310.0647,N,09642.7664,W,2,7,1.34,223.7,M,-24.2,M,0000,0000*64
$GPRMC,183522.400,A,3310.0647,N,09642.7664,W,0.05,0.00,160613,,,D*7A
$GPGGA,183522.600,3310.0647,N,09642.7664,W,2,7,1.34,223.7,M,-24.2,M,0000,0000*66
$GPRMC,183522.600,A,3310.0647,N,09642.7664,W,0.04,0.00,160613,,,D*79
$GPGGA,183522.800,3310.0647,N,09642.7665,W,2,7,1.34,223.7,M,-24.2,M,0000,0000*69
$GPRMC,183522.800,A,3310.0647,N,09642.7665,W,0.04,0.00,160613,,,D*76
$GPGGA,183523.000,3310.0646,N,09642.7665,W,2,7,1.34,223.6,M,-24.2,M,0000,0000*60
$GPRMC,183523.000,A,3310.0646,N,09642.7665,W,0.04,0.00,160613,,,D*7E
$GPGGA,183523.200,3310.0646,N,09642.7665,W,2,7,1.34,223.6,M,-24.2,M,0000,0000*62
$GPRMC,183523.200,A,3310.0646,N,09642.7665,W,0.04,0.00,160613,,,D*7C
$GPGGA,183523.400,3310.0646,N,09642.7665,W,2,7,1.34,223.6,M,-24.2,M,0000,0000*64
$GPRMC,183523.400,A,3310.0646,N,09642.7665,W,0.04,0.00,160613,,,D*7A
$GPGGA,183523.600,3310.0646,N,09642.7665,W,2,7,1.34,223.6,M,-24.2,M,0000,0000*66
$GPRMC,183523.600,A,3310.0646,N,09642.7665,W,0.04,0.00,160613,,,D*78
$GPGGA,183523.800,3310.0646,N,09642.7665,W,2,7,1.34,223.6,M,-24.2,M,0000,0000*68
$GPRMC,183523.800,A,3310.0646,N,09642.7665,W,0.04,0.00,160613,,,D*76
$GPGGA,183524.000,3310.0646,N,09642.7665,W,2,7,1.34,223.5,M,-24.2,M,0000,0000*64
$GPRMC,183524.000,A,3310.0646,N,09642.7665,W,0.04,0.00,160613,,,D*79
$GPGGA,183524.200,3310.0646,N,09642.7665,W,2,7,1.34,223.5,M,-24.2,M,0000,0000*66
$GPRMC,183524.200,A,3310.0646,N,09642.7665,W,0.03,0.00,160613,,,D*7C
$GPGGA,183524.400,3310.0646,N,09642.7665,W,2,7,1.34,223.5,M,-24.2,M,0000,0000*60
$GPRMC,183524.400,A,3310.0646,N,09642.7665,W,0.03,0.00,160613,,,D*7A
$GPGGA,183524.600,3310.0645,N,09642.7665,W,2,7,1.34,223.5,M,-24.2,M,0000,0000*61
$GPRMC,183524.600,A,3310.0645,N,09642.7665,W,0.03,0.00,160613,,,D*7B
$GPGGA,183524.800,3310.0645,N,09642.7665,W,2,7,1.34,223.5,M,-24.2,M,0000,0000*6F
$GPRMC,183524.800,A,3310.0645,N,09642.7665,W,0.04,0.00,160613,,,D*72
$GPGGA,183525.000,3310.0645,N,09642.7665,W,2,7,1.34,223.5,M,-24.2,M,0000,0000*66
$GPRMC,183525.000,A,3310.0645,N,09642.7665,W,0.03,0.00,160613,,,D*7C
$GPGGA,183525.200,3310.0645,N,09642.7665,W,2,7,1.34,223.5,M,-24.2,M,0000,0000*64
$GPRMC,183525.200,A,3310.0645,N,09642.7665,W,0.04,0.00,160613,,,D*79
$GPGGA,183525.400,3310.0645,N,09642.7665,W,2,7,1.34,223.5,M,-24.2,M,0000,0000*62
$GPRMC,183525.400,A,3310.0645,N,09642.7665,W,0.04,0.00,160613,,,D*7F
$GPGGA,183525.600,3310.0645,N,09642.7665,W,2,7,1.34,223.5,M,-24.2,M,0000,0000*60
$GPRMC,183525.600,A,3310.0645,N,09642.7665,W,0.04,0.00,160613,,,D*7D
$GPGGA,183525.800,3310.0645,N,09642.7665,W,2,7,1.34,223.5,M,-24.2,M,0000,0000*6E
$GPRMC,183525.800,A,3310.0645,N,09642.7665,W,0.04,0.00,160613,,,D*73
$GPGGA,183526.000,3310.0645,N,09642.7665,W,2,7,1.34,223.5,M,-24.2,M,0000,0000*65
$GPRMC,183526.000,A,3310.0645,N,09642.7665,W,0.04,0.00,160613,,,D*78
$GPGGA,183526.400,3310.0645,N,09642.7665,W,2,7,1.34,223.5,M,-24.2,M,0000,0000*61
$GPRMC,183526.400,A,3310.0645,N,09642.7665,W,0.04,0.00,160613,,,D*7C
$GPGGA,183526.600,3310.0645,N,09642.7665,W,2,7,1.95,223.5,M,-24.2,M,0000,0000*68
$GPRMC,183526.600,A,3310.0645,N,09642.7665,W,0.04,0.00,160613,,,D*7E
$GPGGA,183526.800,3310.0645,N,09642.7665,W,2,7,1.95,223.5,M,-24.2,M,0000,0000*66
$GPRMC,183526.800,A,3310.0645,N,09642.7665,W,0.03,0.00,160613,,,D*77
$GPGGA,183527.000,3310.0644,N,09642.7665,W,2,7,1.95,223.5,M,-24.2,M,0000,0000*6E
$GPRMC,183527.000,A,3310.0644,N,09642.7665,W,0.03,0.00,160613,,,D*7F
$GPGGA,183527.200,3310.0644,N,09642.7665,W,2,7,1.95,223.4,M,-24.2,M,0000,0000*6D
$GPRMC,183527.200,A,3310.0644,N,09642.7665,W,0.02,0.00,160613,,,D*7C
$GPGGA,183527.400,3310.0644,N,09642.7665,W,2,7,1.95,223.4,M,-24.2,M,0000,0000*6B
$GPRMC,183527.400,A,3310.0644,N,09642.7665,W,0.01,0.00,160613,,,D*79
$GPGGA,183527.800,3310.0644,N,09642.7665,W,2,7,1.95,223.4,M,-24.2,M,0000,0000*67
$GPRMC,183527.800,A,3310.0644,N,09642.7665,W,0.01,0.00,160613,,,D*75
$GPGGA,183528.000,3310.0644,N,09642.7665,W,2,7,1.95,223.4,M,-24.2,M,0000,0000*60
$GPRMC,183528.000,A,3310.0644,N,09642.7665,W,0.01,0.00,160613,,,D*72
$GPGGA,183528.200,3310.0644,N,09642.7665,W,2,7,1.95,223.4,M,-24.2,M,0000,0000*62
$GPRMC,183528.400,A,3310.0644,N,09642.7665,W,0.01,0.00,160613,,,D*76
$GPGGA,183528.600,3310.0644,N,09642.7665,W,2,7,1.95,223.4,M,-24.2,M,0000,0000*66
$GPRMC,183528.600,A,3310.0644,N,09642.7665,W,0.01,0.00,160613,,,D*74
$GPGGA,183528.800,3310.0644,N,09642.7665,W,2,7,1.95,223.4,M,-24.2,M,0000,0000*68
$GPRMC,183528.800,A,3310.0644,N,09642.7665,W,0.01,0.00,160613,,,D*7A
$GPGGA,183529.000,3310.0644,N,09642.7665,W,2,7,1.95,223.4,M,-24.2,M,0000,0000*61
$GPRMC,183529.000,A,3310.0644,N,09642.7665,W,0.01,0.00,160613,,,D*73
$GPGGA,183529.200,3310.0644,N,09642.7665,W,2,7,1.95,223.4,M,-24.2,M,0000,0000*63
$GPRMC,183529.200,A,3310.0644,N,09642.7665,W,0.01,0.00,160613,,,D*71
$GPGGA,183529.400,3310.0644,N,09642.7665,W,2,7,1.95,223.4,M,-24.2,M,0000,0000*65
$GPRMC,183529.400,A,3310.0644,N,09642.7665,W,0.01,0.00,160613,,,D*77
$GPGGA,183529.600,3310.0644,N,09642.7665,W,2,7,1.95,223.4,M,-24.2,M,0000,0000*67
$GPRMC,183529.600,A,3310.0644,N,09642.7665,W,0.00,0.00,160613,,,D*74
$GPGGA,183529.800,3310.0644,N,09642.7665,W,2,7,1.95,223.4,M,-24.2,M,0000,0000*69
$GPRMC,183529.800,A,3310.0644,N,09642.7665,W,0.00,0.00,160613,,,D*7A
$GPGGA,183530.000,3310.0644,N,09642.7665,W,2,7,1.95,223.4,M,-24.2,M,0000,0000*69
$GPRMC,183530.000,A,3310.0644,N,09642.7665,W,0.01,0.00,160613,,,D*7B
$GPGGA,183530.200,3310.0644,N,09642.7665,W,2,7,1.95,223.4,M,-24.2,M,0000,0000*6B
$GPRMC,183530.200,A,3310.0644,N,09642.7665,W,0.01,0.00,160613,,,D*79
$GPGGA,183530.400,3310.0644,N,09642.7665,W,2,7,1.95,223.4,M,-24.2,M,0000,0000*6D
$GPRMC,183530.400,A,3310.0644,N,09642.7665,W,0.01,0.00,160613,,,D*7F
$GPGGA,183530.600,3310.0643,N,09642.7665,W,2,7,1.95,223.3,M,-24.2,M,0000,0000*6F
$GPRMC,183530.600,A,3310.0643,N,09642.7665,W,0.01,0.00,160613,,,D*7A
$GPGGA,183531.000,3310.0643,N,09642.7664,W,2,7,1.95,223.3,M,-24.2,M,0000,0000*69
$GPRMC,183531.000,A,3310.0643,N,09642.7664,W,0.01,0.00,160613,,,D*7C
$GPGGA,183531.400,3310.0643,N,09642.7665,W,2,7,1.95,223.3,M,-24.2,M,0000,0000*6C
$GPRMC,183531.400,A,3310.0643,N,09642.7665,W,0.01,0.00,160613,,,D*79
$GPGGA,183531.600,3310.0643,N,09642.7665,W,2,7,1.95,223.3,M,-24.2,M,0000,0000*6E
$GPRMC,183531.600,A,3310.0643,N,09642.7665,W,0.01,0.00,160613,,,D*7B
$GPGGA,183531.800,3310.0643,N,09642.7665,W,2,7,1.95,223.3,M,-24.2,M,0000,0000*60
$GPRMC,183531.800,A,3310.0643,N,09642.7665,W,0.00,0.00,160613,,,D*74
$GPGGA,183532.000,3310.0643,N,09642.7665,W,2,7,1.95,223.3,M,-24.2,M,0000,0000*6B
$GPRMC,183532.000,A,3310.0643,N,09642.7665,W,0.00,0.00,160613,,,D*7F
$GPGGA,183532.200,3310.0643,N,09642.7665,W,2,7,1.95,223.3,M,-24.2,M,0000,0000*69
$GPRMC,183532.200,A,3310.0643,N,09642.7665,W,0.00,0.00,160613,,,D*7D
$GPGGA,183532.400,3310.0643,N,09642.7665,W,2,7,1.95,223.3,M,-24.2,M,0000,0000*6F
$GPRMC,183532.400,A,3310.0643,N,09642.7665,W,0.00,0.00,160613,,,D*7B
$GPGGA,183532.800,3310.0643,N,09642.7665,W,2,7,1.95,223.3,M,-24.2,M,0000,0000*63
$GPRMC,183532.800,A,3310.0643,N,09642.7665,W,0.01,0.00,160613,,,D*76
$GPGGA,183533.000,3310.0643,N,09642.7665,W,2,7,1.95,223.3,M,-24.2,M,0000,0000*6A
$GPRMC,183533.000,A,3310.0643,N,09642.7665,W,0.01,0.00,160613,,,D*7F
$GPGGA,183533.200,3310.0643,N,09642.7665,W,2,7,1.95,223.3,M,-24.2,M,0000,0000*68
$GPRMC,183533.200,A,3310.0643,N,09642.7665,W,0.00,0.00,160613,,,D*7C
$GPGGA,183533.400,3310.0643,N,09642.7664,W,2,7,1.95,223.3,M,-24.2,M,0000,0000*6F
$GPRMC,183533.400,A,3310.0643,N,09642.7664,W,0.00,0.00,160613,,,D*7B
$GPGGA,183533.600,3310.0643,N,09642.7664,W,2,7,1.95,223.3,M,-24.2,M,0000,0000*6D
$GPRMC,183533.600,A,3310.0643,N,09642.7664,W,0.00,0.00,160613,,,D*79
$GPGGA,183534.000,3310.0643,N,09642.7664,W,2,7,1.95,223.2,M,-24.2,M,0000,0000*6D
$GPRMC,183534.000,A,3310.0643,N,09642.7664,W,0.00,0.00,160613,,,D*78
$GPGGA,183534.200,3310.0643,N,09642.7664,W,2,7,1.95,223.2,M,-24.2,M,0000,0000*6F
$GPRMC,183534.200,A,3310.0643,N,09642.7664,W,0.00,0.00,160613,,,D*7A
$GPGGA,183534.600,3310.0643,N,09642.7664,W,2,7,1.95,223.2,M,-24.2,M,0000,0000*6B
$GPRMC,183534.600,A,3310.0643,N,09642.7664,W,0.00,0.00,160613,,,D*7E
$GPGGA,183534.800,3310.0643,N,09642.7664,W,2,7,1.95,223.2,M,-24.2,M,0000,0000*65
$GPRMC,183534.800,A,3310.0643,N,09642.7664,W,0.00,0.00,160613,,,D*70
$GPGGA,183535.000,3310.0643,N,09642.7664,W,2,7,1.95,223.2,M,-24.2,M,0000,0000*6C
$GPRMC,183535.000,A,3310.0643,N,09642.7664,W,0.01,0.00,160613,,,D*78
$GPGGA,183535.200,3310.0643,N,09642.7664,W,2,7,1.95,223.2,M,-24.2,M,0000,0000*6E
$GPRMC,183535.200,A,3310.0643,N,09642.7664,W,0.01,0.00,160613,,,D*7A
$GPGGA,183535.400,3310.0643,N,09642.7664,W,2,7,1.95,223.2,M,-24.2,M,0000,0000*68
$GPRMC,183535.400,A,3310.0643,N,09642.7664,W,0.01,0.00,160613,,,D*7C
$GPGGA,183535.600,3310.0643,N,09642.7664,W,2,7,1.95,223.2,M,-24.2,M,0000,0000*6A
$GPRMC,183535.600,A,3310.0643,N,09642.7664,W,0.01,0.00,160613,,,D*7E
$GPGGA,183535.800,3310.0642,N,09642.7664,W,2,7,1.95,223.2,M,-24.2,M,0000,0000*65
$GPRMC,183535.800,A,3310.0642,N,09642.7664,W,0.01,0.00,160613,,,D*71
$GPGGA,183536.000,3310.0642,N,09642.7664,W,2,7,1.95,223.2,M,-24.2,M,0000,0000*6E
$GPRMC,183536.000,A,3310.0642,N,09642.7664,W,0.01,0.00,160613,,,D*7A
$GPGGA,183536.400,3310.0642,N,09642.7664,W,2,7,1.95,223.1,M,-24.2,M,0000,0000*69
$GPRMC,183536.400,A,3310.0642,N,09642.7664,W,0.01,0.00,160613,,,D*7E
$GPGGA,183536.600,3310.0642,N,09642.7664,W,2,7,1.95,223.1,M,-24.2,M,0000,0000*6B
$GPRMC,183536.600,A,3310.0642,N,09642.7664,W,0.01,0.00,160613,,,D*7C
$GPGGA,183536.800,3310.0642,N,09642.7664,W,2,7,1.95,223.1,M,-24.2,M,0000,0000*65
$GPRMC,183536.800,A,3310.0642,N,09642.7664,W,0.00,0.00,160613,,,D*73
$GPGGA,183537.000,3310.0642,N,09642.7664,W,2,7,1.95,223.1,M,-24.2,M,0000,0000*6C
$GPRMC,183537.000,A,3310.0642,N,09642.7664,W,0.00,0.00,160613,,,D*7A
$GPGGA,183537.200,3310.0642,N,09642.7664,W,2,7,1.95,223.1,M,-24.2,M,0000,0000*6E
$GPRMC,183537.200,A,3310.0642,N,09642.7664,W,0.00,0.00,160613,,,D*78
$GPGGA,183537.400,3310.0642,N,09642.7663,W,2,7,1.95,223.1,M,-24.2,M,0000,0000*6F
$GPRMC,183537.400,A,3310.0642,N,09642.7663,W,0.01,0.00,160613,,,D*78
$GPGGA,183537.600,3310.0642,N,09642.7663,W,2,7,1.95,223.1,M,-24.2,M,0000,0000*6D
$GPRMC,183537.600,A,3310.0642,N,09642.7663,W,0.01,0.00,160613,,,D*7A
$GPGGA,183537.800,3310.0642,N,09642.7663,W,2,7,1.95,223.1,M,-24.2,M,0000,0000*63
$GPRMC,183537.800,A,3310.0642,N,09642.7663,W,0.01,0.00,160613,,,D*74
$GPGGA,183538.000,3310.0642,N,09642.7663,W,2,7,1.95,223.1,M,-24.2,M,0000,0000*64
$GPRMC,183538.000,A,3310.0642,N,09642.7663,W,0.01,0.00,160613,,,D*73
$GPGGA,183538.200,3310.0643,N,09642.7663,W,2,7,1.95,223.1,M,-24.2,M,0000,0000*67
$GPRMC,183538.200,A,3310.0643,N,09642.7663,W,0.01,0.00,160613,,,D*70
$GPGGA,183538.400,3310.0643,N,09642.7663,W,2,7,1.95,223.1,M,-24.2,M,0000,0000*61
$GPRMC,183538.400,A,3310.0643,N,09642.7663,W,0.01,0.00,160613,,,D*76
$GPGGA,183538.800,3310.0643,N,09642.7663,W,2,7,1.95,223.2,M,-24.2,M,0000,0000*6E
$GPRMC,183538.800,A,3310.0643,N,09642.7663,W,0.00,0.00,160613,,,D*7B
$GPGGA,183539.200,3310.0643,N,09642.7663,W,2,7,1.95,223.2,M,-24.2,M,0000,0000*65
$GPRMC,183539.200,A,3310.0643,N,09642.7663,W,0.00,0.00,160613,,,D*70
$GPGGA,183539.400,3310.0643,N,09642.7663,W,2,7,1.95,223.2,M,-24.2,M,0000,0000*63
$GPRMC,183539.400,A,3310.0643,N,09642.7663,W,0.00,0.00,160613,,,D*76
$GPGGA,183539.600,3310.0643,N,09642.7663,W,2,7,1.95,223.2,M,-24.2,M,0000,0000*61
$GPRMC,183539.600,A,3310.0643,N,09642.7663,W,0.00,0.00,160613,,,D*74
$GPGGA,183539.800,3310.0643,N,09642.7663,W,2,7,1.95,223.2,M,-24.2,M,0000,0000*6F
$GPRMC,183539.800,A,3310.0643,N,09642.7663,W,0.01,0.00,160613,,,D*7B
$GPGGA,183540.000,3310.0643,N,09642.7663,W,2,7,1.95,223.2,M,-24.2,M,0000,0000*69
$GPRMC,183540.000,A,3310.0643,N,09642.7663,W,0.01,0.00,160613,,,D*7D
$GPGGA,183540.200,3310.0643,N,09642.7663,W,2,7,1.95,223.2,M,-24.2,M,0000,0000*6B
$GPRMC,183540.200,A,3310.0643,N,09642.7663,W,0.01,0.00,160613,,,D*7F
$GPGGA,183540.400,3310.0643,N,09642.7663,W,2,7,1.95,223.1,M,-24.2,M,0000,0000*6E
$GPRMC,183540.400,A,3310.0643,N,09642.7663,W,0.00,0.00,160613,,,D*78
$GPGGA,183540.800,3310.0643,N,09642.7663,W,2,7,1.95,223.1,M,-24.2,M,0000,0000*62
$GPRMC,183540.800,A,3310.0643,N,09642.7663,W,0.00,0.00,160613,,,D*74
$GPGGA,183541.000,3310.0643,N,09642.7663,W,2,7,1.95,223.1,M,-24.2,M,0000,0000*6B
$GPRMC,183541.000,A,3310.0643,N,09642.7663,W,0.00,0.00,160613,,,D*7D
$GPGGA,183541.200,3310.0643,N,09642.7663,W,2,7,1.95,223.1,M,-24.2,M,0000,0000*69
$GPRMC,183541.200,A,3310.0643,N,09642.7663,W,0.01,0.00,160613,,,D*7E
$GPGGA,183541.400,3310.0643,N,09642.7663,W,2,7,1.95,223.1,M,-24.2,M,0000,0000*6F
$GPRMC,183541.400,A,3310.0643,N,09642.7663,W,0.01,0.00,160613,,,D*78
$GPGGA,183541.600,3310.0643,N,09642.7663,W,2,7,1.95,223.1,M,-24.2,M,0000,0000*6D
$GPRMC,183541.600,A,3310.0643,N,09642.7663,W,0.01,0.00,160613,,,D*7A
$GPGGA,183541.800,3310.0643,N,09642.7663,W,2,7,1.95,223.1,M,-24.2,M,0000,0000*63
$GPRMC,183541.800,A,3310.0643,N,09642.7663,W,0.01,0.00,160613,,,D*74
$GPGGA,183542.000,3310.0643,N,09642.7663,W,2,7,1.95,223.1,M,-24.2,M,0000,0000*68
$GPRMC,183542.000,A,3310.0643,N,09642.7663,W,0.01,0.00,160613,,,D*7F
$GPGGA,183542.200,3310.0643,N,09642.7663,W,2,7,1.95,223.1,M,-24.2,M,0000,0000*6A
$GPRMC,183542.200,A,3310.0643,N,09642.7663,W,0.01,0.00,160613,,,D*7D
$GPGGA,183542.400,3310.0643,N,09642.7663,W,2,7,1.95,223.1,M,-24.2,M,0000,0000*6C
$GPRMC,183542.400,A,3310.0643,N,09642.7663,W,0.01,0.00,160613,,,D*7B
$GPGGA,183542.800,3310.0643,N,09642.7663,W,2,7,1.95,223.1,M,-24.2,M,0000,0000*60
$GPRMC,183542.800,A,3310.0643,N,09642.7663,W,0.01,0.00,160613,,,D*77
$GPGGA,183543.000,3310.0643,N,09642.7663,W,2,7,1.95,223.1,M,-24.2,M,0000,0000*69
$GPRMC,183543.000,A,3310.0643,N,09642.7663,W,0.01,0.00,160613,,,D*7E
$GPGGA,183543.200,3310.0643,N,09642.7663,W,2,7,1.95,223.0,M,-24.2,M,0000,0000*6A
$GPRMC,183543.200,A,3310.0643,N,09642.7663,W,0.00,0.00,160613,,,D*7D
$GPGGA,183543.400,3310.0643,N,09642.7662,W,2,7,1.95,223.0,M,-24.2,M,0000,0000*6D
$GPRMC,183543.400,A,3310.0643,N,09642.7662,W,0.01,0.00,160613,,,D*7B
$GPGGA,183543.600,3310.0643,N,09642.7662,W,2,7,1.95,223.0,M,-24.2,M,0000,0000*6F
$GPRMC,183543.600,A,3310.0643,N,09642.7662,W,0.01,0.00,160613,,,D*79
$GPGGA,183543.800,3310.0643,N,09642.7662,W,2,7,1.95,222.9,M,-24.2,M,0000,0000*69
$GPRMC,183543.800,A,3310.0643,N,09642.7662,W,0.01,0.00,160613,,,D*77
$GPGGA,183544.000,3310.0643,N,09642.7662,W,2,7,1.95,222.9,M,-24.2,M,0000,0000*66
$GPRMC,183544.000,A,3310.0643,N,09642.7662,W,0.01,0.00,160613,,,D*78
$GPGGA,183544.200,3310.0643,N,09642.7662,W,2,7,1.95,222.9,M,-24.2,M,0000,0000*64
$GPRMC,183544.200,A,3310.0643,N,09642.7662,W,0.01,0.00,160613,,,D*7A
$GPGGA,183544.600,3310.0643,N,09642.7663,W,2,7,1.95,222.9,M,-24.2,M,0000,0000*61
$GPRMC,183544.600,A,3310.0643,N,09642.7663,W,0.01,0.00,160613,,,D*7F
$GPGGA,183544.800,3310.0643,N,09642.7663,W,2,7,1.95,222.9,M,-24.2,M,0000,0000*6F
$GPRMC,183544.800,A,3310.0643,N,09642.7663,W,0.00,0.00,160613,,,D*70
$GPGGA,183545.200,3310.0642,N,09642.7663,W,2,7,1.95,222.9,M,-24.2,M,0000,0000*65
$GPRMC,183545.200,A,3310.0642,N,09642.7663,W,0.00,0.00,160613,,,D*7A
$GPGGA,183545.400,3310.0642,N,09642.7663,W,2,7,1.95,222.9,M,-24.2,M,0000,0000*63
$GPRMC,183545.400,A,3310.0642,N,09642.7663,W,0.00,0.00,160613,,,D*7C
$GPGGA,183545.600,3310.0642,N,09642.7663,W,2,7,1.95,222.9,M,-24.2,M,0000,0000*61
$GPRMC,183545.600,A,3310.0642,N,09642.7663,W,0.00,0.00,160613,,,D*7E
$GPGGA,183545.800,3310.0642,N,09642.7663,W,2,7,1.95,222.9,M,-24.2,M,0000,0000*6F
$GPRMC,183545.800,A,3310.0642,N,09642.7663,W,0.00,0.00,160613,,,D*70
$GPGGA,183546.200,3310.0642,N,09642.7663,W,2,7,1.95,222.9,M,-24.2,M,0000,0000*66
$GPRMC,183546.200,A,3310.0642,N,09642.7663,W,0.01,0.00,160613,,,D*78
$GPGGA,183546.400,3310.0642,N,09642.7663,W,2,7,1.95,222.8,M,-24.2,M,0000,0000*61
$GPRMC,183546.400,A,3310.0642,N,09642.7663,W,0.01,0.00,160613,,,D*7E
$GPGGA,183546.600,3310.0642,N,09642.7663,W,2,7,1.95,222.8,M,-24.2,M,0000,0000*63
$GPRMC,183546.600,A,3310.0642,N,09642.7663,W,0.01,0.00,160613,,,D*7C
$GPGGA,183546.800,3310.0642,N,09642.7663,W,2,7,1.95,222.8,M,-24.2,M,0000,0000*6D
$GPRMC,183546.800,A,3310.0642,N,09642.7663,W,0.01,0.00,160613,,,D*72
$GPGGA,183547.000,3310.0642,N,09642.7663,W,2,7,1.95,222.8,M,-24.2,M,0000,0000*64
$GPRMC,183547.000,A,3310.0642,N,09642.7663,W,0.00,0.00,160613,,,D*7A
$GPGGA,183547.200,3310.0641,N,09642.7663,W,2,7,1.95,222.7,M,-24.2,M,0000,0000*6A
$GPRMC,183547.200,A,3310.0641,N,09642.7663,W,0.00,0.00,160613,,,D*7B
$GPGGA,183547.400,3310.0641,N,09642.7663,W,2,7,1.95,222.7,M,-24.2,M,0000,0000*6C
$GPRMC,183547.400,A,3310.0641,N,09642.7663,W,0.00,0.00,160613,,,D*7D
$GPGGA,183547.600,3310.0641,N,09642.7663,W,2,7,1.95,222.7,M,-24.2,M,0000,0000*6E
$GPRMC,183547.600,A,3310.0641,N,09642.7663,W,0.00,0.00,160613,,,D*7F
$GPGGA,183547.800,3310.0641,N,09642.7663,W,2,7,1.95,222.8,M,-24.2,M,0000,0000*6F
$GPRMC,183547.800,A,3310.0641,N,09642.7663,W,0.01,0.00,160613,,,D*70
$GPGGA,183548.200,3310.0641,N,09642.7663,W,2,7,1.95,222.8,M,-24.2,M,0000,0000*6A
$GPRMC,183548.200,A,3310.0641,N,09642.7663,W,0.01,0.00,160613,,,D*75
$GPGGA,183548.400,3310.0641,N,09642.7663,W,2,7,1.95,222.8,M,-24.2,M,0000,0000*6C
$GPRMC,183548.400,A,3310.0641,N,09642.7663,W,0.01,0.00,160613,,,D*73
$GPGGA,183548.800,3310.0641,N,09642.7663,W,2,7,1.95,222.8,M,-24.2,M,0000,0000*60
$GPRMC,183548.800,A,3310.0641,N,09642.7663,W,0.01,0.00,160613,,,D*7F
$GPGGA,183549.000,3310.0641,N,09642.7663,W,2,7,1.95,222.8,M,-24.2,M,0000,0000*69
$GPRMC,183549.000,A,3310.0641,N,09642.7663,W,0.01,0.00,160613,,,D*76
$GPGGA,183549.400,3310.0641,N,09642.7663,W,2,7,1.95,222.7,M,-24.2,M,0000,0000*62
$GPRMC,183549.400,A,3310.0641,N,09642.7663,W,0.01,0.00,160613,,,D*72
$GPGGA,183549.600,3310.0641,N,09642.7663,W,2,7,1.95,222.7,M,-24.2,M,0000,0000*60
$GPRMC,183549.600,A,3310.0641,N,09642.7663,W,0.01,0.00,160613,,,D*70
$GPGGA,183549.800,3310.0641,N,09642.7663,W,2,7,1.95,222.7,M,-24.2,M,0000,0000*6E
$GPRMC,183549.800,A,3310.0641,N,09642.7663,W,0.01,0.00,160613,,,D*7E
$GPGGA,183550.200,3310.0641,N,09642.7663,W,2,7,1.95,222.7,M,-24.2,M,0000,0000*6C
$GPRMC,183550.200,A,3310.0641,N,09642.7663,W,0.00,0.00,160613,,,D*7D
$GPGGA,183550.400,3310.0641,N,09642.7664,W,2,7,1.95,222.6,M,-24.2,M,0000,0000*6C
$GPRMC,183550.400,A,3310.0641,N,09642.7664,W,0.00,0.00,160613,,,D*7C
$GPGGA,183550.800,3310.0641,N,09642.7664,W,2,7,1.95,222.6,M,-24.2,M,0000,0000*60
$GPRMC,183550.800,A,3310.0641,N,09642.7664,W,0.00,0.00,160613,,,D*70
$GPGGA,183551.000,3310.0641,N,09642.7664,W,2,7,1.95,222.6,M,-24.2,M,0000,0000*69
$GPRMC,183551.000,A,3310.0641,N,09642.7664,W,0.01,0.00,160613,,,D*78
$GPGGA,183551.200,3310.0641,N,09642.7664,W,2,7,1.95,222.6,M,-24.2,M,0000,0000*6B
$GPRMC,183551.200,A,3310.0641,N,09642.7664,W,0.01,0.00,160613,,,D*7A
$GPGGA,183551.400,3310.0640,N,09642.7665,W,2,7,1.95,222.6,M,-24.2,M,0000,0000*6D
$GPRMC,183551.400,A,3310.0640,N,09642.7665,W,0.01,0.00,160613,,,D*7C
$GPGGA,183551.600,3310.0640,N,09642.7665,W,2,7,1.95,222.6,M,-24.2,M,0000,0000*6F
$GPRMC,183551.600,A,3310.0640,N,09642.7665,W,0.01,0.00,160613,,,D*7E
$GPGGA,183551.800,3310.0640,N,09642.7665,W,2,7,1.95,222.6,M,-24.2,M,0000,0000*61
$GPRMC,183551.800,A,3310.0640,N,09642.7665,W,0.01,0.00,160613,,,D*70
$GPGGA,183552.200,3310.0640,N,09642.7665,W,2,7,1.95,222.5,M,-24.2,M,0000,0000*6B
$GPRMC,183552.200,A,3310.0640,N,09642.7665,W,0.00,0.00,160613,,,D*78
$GPGGA,183552.600,3310.0640,N,09642.7666,W,2,7,1.95,222.4,M,-24.2,M,0000,0000*6D
$GPRMC,183552.600,A,3310.0640,N,09642.7666,W,0.01,0.00,160613,,,D*7E
$GPGGA,183552.800,3310.0640,N,09642.7666,W,2,7,1.95,222.4,M,-24.2,M,0000,0000*63
$GPRMC,183552.800,A,3310.0640,N,09642.7666,W,0.01,0.00,160613,,,D*70
$GPGGA,183553.000,3310.0640,N,09642.7666,W,2,7,1.95,222.4,M,-24.2,M,0000,0000*6A
$GPRMC,183553.000,A,3310.0640,N,09642.7666,W,0.01,0.00,160613,,,D*79
$GPGGA,183553.200,3310.0639,N,09642.7666,W,2,7,1.95,222.3,M,-24.2,M,0000,0000*61
$GPRMC,183553.200,A,3310.0639,N,09642.7666,W,0.01,0.00,160613,,,D*75
$GPGGA,183553.400,3310.0639,N,09642.7666,W,2,7,1.95,222.3,M,-24.2,M,0000,0000*67
$GPRMC,183553.400,A,3310.0639,N,09642.7666,W,0.01,0.00,160613,,,D*73
$GPGGA,183553.600,3310.0639,N,09642.7667,W,2,7,1.95,222.3,M,-24.2,M,0000,0000*64
$GPRMC,183553.600,A,3310.0639,N,09642.7667,W,0.01,0.00,160613,,,D*70
$GPGGA,183553.800,3310.0639,N,09642.7667,W,2,7,1.95,222.3,M,-24.2,M,0000,0000*6A
$GPRMC,183553.800,A,3310.0639,N,09642.7667,W,0.01,0.00,160613,,,D*7E
$GPGGA,183554.200,3310.0639,N,09642.7667,W,2,7,1.95,222.2,M,-24.2,M,0000,0000*66
$GPRMC,183554.200,A,3310.0639,N,09642.7667,W,0.01,0.00,160613,,,D*73
$GPGGA,183554.600,3310.0639,N,09642.7668,W,2,7,1.95,222.2,M,-24.2,M,0000,0000*6D
$GPRMC,183554.600,A,3310.0639,N,09642.7668,W,0.00,0.00,160613,,,D*79
$GPGGA,183554.800,3310.0639,N,09642.7668,W,2,7,1.95,222.2,M,-24.2,M,0000,0000*63
$GPRMC,183554.800,A,3310.0639,N,09642.7668,W,0.00,0.00,160613,,,D*77
$GPGGA,183555.000,3310.0639,N,09642.7668,W,2,7,1.95,222.2,M,-24.2,M,0000,0000*6A
$GPRMC,183555.000,A,3310.0639,N,09642.7668,W,0.00,0.00,160613,,,D*7E
$GPGGA,183555.200,3310.0639,N,09642.7668,W,2,7,1.95,222.1,M,-24.2,M,0000,0000*6B
$GPRMC,183555.200,A,3310.0639,N,09642.7668,W,0.00,0.00,160613,,,D*7C
$GPGGA,183555.400,3310.0639,N,09642.7669,W,2,7,1.95,222.1,M,-24.2,M,0000,0000*6C
$GPRMC,183555.400,A,3310.0639,N,09642.7669,W,0.00,0.00,160613,,,D*7B
$GPGGA,183555.600,3310.0639,N,09642.7669,W,2,7,1.95,222.1,M,-24.2,M,0000,0000*6E
$GPRMC,183555.600,A,3310.0639,N,09642.7669,W,0.00,0.00,160613,,,D*79
$GPGGA,183555.800,3310.0639,N,09642.7669,W,2,7,1.95,222.0,M,-24.2,M,0000,0000*61
$GPRMC,183555.800,A,3310.0639,N,09642.7669,W,0.01,0.00,160613,,,D*76
$GPGGA,183556.000,3310.0639,N,09642.7669,W,2,7,1.95,222.0,M,-24.2,M,0000,0000*6A
$GPRMC,183556.000,A,3310.0639,N,09642.7669,W,0.01,0.00,160613,,,D*7D
$GPGGA,183556.200,3310.0639,N,09642.7669,W,2,7,1.95,222.0,M,-24.2,M,0000,0000*68
$GPRMC,183556.200,A,3310.0639,N,09642.7669,W,0.01,0.00,160613,,,D*7F
$GPGGA,183556.400,3310.0639,N,09642.7669,W,2,7,1.95,222.0,M,-24.2,M,0000,0000*6E
$GPRMC,183556.400,A,3310.0639,N,09642.7669,W,0.00,0.00,160613,,,D*78
$GPGGA,183556.800,3310.0639,N,09642.7670,W,2,7,1.95,222.0,M,-24.2,M,0000,0000*6A
$GPRMC,183556.800,A,3310.0639,N,09642.7670,W,0.00,0.00,160613,,,D*7C
$GPGGA,183557.000,3310.0638,N,09642.7670,W,2,7,1.95,222.0,M,-24.2,M,0000,0000*62
$GPRMC,183557.000,A,3310.0638,N,09642.7670,W,0.00,0.00,160613,,,D*74
$GPGGA,183557.200,3310.0638,N,09642.7670,W,2,7,1.95,222.0,M,-24.2,M,0000,0000*60
$GPRMC,183557.200,A,3310.0638,N,09642.7670,W,0.00,0.00,160613,,,D*76
$GPGGA,183557.400,3310.0638,N,09642.7670,W,2,7,1.95,222.0,M,-24.2,M,0000,0000*66
$GPRMC,183557.400,A,3310.0638,N,09642.7670,W,0.01,0.00,160613,,,D*71
$GPGGA,183557.600,3310.0638,N,09642.7670,W,2,7,1.95,222.0,M,-24.2,M,0000,0000*64
$GPRMC,183557.600,A,3310.0638,N,09642.7670,W,0.01,0.00,160613,,,D*73
$GPGGA,183558.000,3310.0638,N,09642.7670,W,2,7,1.95,222.0,M,-24.2,M,0000,0000*6D
$GPRMC,183558.000,A,3310.0638,N,09642.7670,W,0.00,0.00,160613,,,D*7B
$GPGGA,183558.200,3310.0638,N,09642.7670,W,2,7,1.95,222.0,M,-24.2,M,0000,0000*6F
$GPRMC,183558.200,A,3310.0638,N,09642.7670,W,0.01,0.00,160613,,,D*78
$GPGGA,183558.600,3310.0638,N,09642.7670,W,2,7,1.95,222.0,M,-24.2,M,0000,0000*6B
$GPRMC,183558.600,A,3310.0638,N,09642.7670,W,0.00,0.00,160613,,,D*7D
$GPGGA,183558.800,3310.0638,N,09642.7670,W,2,7,1.95,222.0,M,-24.2,M,0000,0000*65
$GPRMC,183558.800,A,3310.0638,N,09642.7670,W,0.00,0.00,160613,,,D*73
$GPGGA,183559.000,3310.0638,N,09642.7670,W,2,7,1.95,222.0,M,-24.2,M,0000,0000*6C
$GPRMC,183559.000,A,3310.0638,N,09642.7670,W,0.01,0.00,160613,,,D*7B
$GPGGA,183559.200,3310.0638,N,09642.7670,W,2,7,1.95,222.0,M,-24.2,M,0000,0000*6E
$GPRMC,183559.200,A,3310.0638,N,09642.7670,W,0.01,0.00,160613,,,D*79
$GPGGA,183559.400,3310.0638,N,09642.7670,W,2,7,1.95,222.0,M,-24.2,M,0000,0000*68
$GPRMC,183559.400,A,3310.0638,N,09642.7670,W,0.00,0.00,160613,,,D*7E
$GPGGA,183559.600,3310.0638,N,09642.7670,W,2,7,1.95,222.0,M,-24.2,M,0000,0000*6A
$GPRMC,183559.600,A,3310.0638,N,09642.7670,W,0.00,0.00,160613,,,D*7C
$GPGGA,183600.000,3310.0638,N,09642.7670,W,2,7,1.95,222.0,M,-24.2,M,0000,0000*63
$GPRMC,183600.000,A,3310.0638,N,09642.7670,W,0.01,0.00,160613,,,D*74
$GPGGA,183600.200,3310.0638,N,09642.7670,W,2,7,1.95,222.0,M,-24.2,M,0000,0000*61
$GPRMC,183600.200,A,3310.0638,N,09642.7670,W,0.00,0.00,160613,,,D*77
$GPGGA,183600.400,3310.0638,N,09642.7670,W,2,7,1.95,222.0,M,-24.2,M,0000,0000*67
$GPRMC,183600.400,A,3310.0638,N,09642.7670,W,0.01,0.00,160613,,,D*70
$GPGGA,183600.600,3310.0638,N,09642.7670,W,2,7,1.95,222.0,M,-24.2,M,0000,0000*65
$GPRMC,183600.600,A,3310.0638,N,09642.7670,W,0.00,0.00,160613,,,D*73
$GPGGA,183600.800,3310.0638,N,09642.7670,W,2,7,1.95,222.0,M,-24.2,M,0000,0000*6B
$GPRMC,183600.800,A,3310.0638,N,09642.7670,W,0.00,0.00,160613,,,D*7D
$GPGGA,183601.200,3310.0638,N,09642.7670,W,2,7,1.95,222.0,M,-24.2,M,0000,0000*60
$GPRMC,183601.200,A,3310.0638,N,09642.7670,W,0.01,0.00,160613,,,D*77
$GPGGA,183601.400,3310.0638,N,09642.7670,W,2,7,1.95,222.0,M,-24.2,M,0000,0000*66
$GPRMC,183601.400,A,3310.0638,N,09642.7670,W,0.00,0.00,160613,,,D*70
$GPGGA,183601.600,3310.0638,N,09642.7670,W,2,7,1.95,222.0,M,-24.2,M,0000,0000*64
$GPRMC,183601.600,A,3310.0638,N,09642.7670,W,0.00,0.00,160613,,,D*72
$GPGGA,183602.000,3310.0638,N,09642.7670,W,2,7,1.95,222.0,M,-24.2,M,0000,0000*61
$GPRMC,183602.000,A,3310.0638,N,09642.7670,W,0.01,0.00,160613,,,D*76
$GPGGA,183602.200,3310.0638,N,09642.7670,W,2,7,1.95,222.0,M,-24.2,M,0000,0000*63
$GPRMC,183602.200,A,3310.0638,N,09642.7670,W,0.01,0.00,160613,,,D*74
$GPGGA,183602.600,3310.0638,N,09642.7670,W,2,7,1.95,222.0,M,-24.2,M,0000,0000*67
$GPRMC,183602.600,A,3310.0638,N,09642.7670,W,0.01,0.00,160613,,,D*70
$GPGGA,183602.800,3310.0638,N,09642.7670,W,2,7,1.95,222.0,M,-24.2,M,0000,0000*69
$GPRMC,183602.800,A,3310.0638,N,09642.7670,W,0.00,0.00,160613,,,D*7F
$GPGGA,183603.000,3310.0638,N,09642.7670,W,2,7,1.95,222.0,M,-24.2,M,0000,0000*60
$GPRMC,183603.000,A,3310.0638,N,09642.7670,W,0.00,0.00,160613,,,D*76
$GPGGA,183603.200,3310.0638,N,09642.7670,W,2,7,1.95,222.0,M,-24.2,M,0000,0000*62
$GPRMC,183603.200,A,3310.0638,N,09642.7670,W,0.00,0.00,160613,,,D*74
$GPGGA,183603.400,3310.0638,N,09642.7670,W,2,7,1.95,222.0,M,-24.2,M,0000,0000*64
$GPRMC,183603.400,A,3310.0638,N,09642.7670,W,0.00,0.00,160613,,,D*72
$GPGGA,183603.600,3310.0638,N,09642.7670,W,2,7,1.95,222.0,M,-24.2,M,0000,0000*66
$GPRMC,183603.600,A,3310.0638,N,09642.7670,W,0.00,0.00,160613,,,D*70
$GPGGA,183604.000,3310.0638,N,09642.7670,W,2,7,1.95,222.0,M,-24.2,M,0000,0000*67
$GPRMC,183604.000,A,3310.0638,N,09642.7670,W,0.02,0.00,160613,,,D*73
$GPGGA,183604.200,3310.0638,N,09642.7670,W,2,7,1.95,222.0,M,-24.2,M,0000,0000*65
$GPRMC,183604.200,A,3310.0638,N,09642.7670,W,0.01,0.00,160613,,,D*72
$GPGGA,183604.600,3310.0638,N,09642.7670,W,2,7,1.95,222.0,M,-24.2,M,0000,0000*61
$GPRMC,183604.600,A,3310.0638,N,09642.7670,W,0.00,0.00,160613,,,D*77
$GPGGA,183605.000,3310.0638,N,09642.7670,W,2,7,1.95,222.0,M,-24.2,M,0000,0000*66
$GPRMC,183605.000,A,3310.0638,N,09642.7670,W,0.00,0.00,160613,,,D*70
$GPGGA,183605.200,3310.0638,N,09642.7670,W,2,7,1.95,222.0,M,-24.2,M,0000,0000*64
$GPRMC,183605.200,A,3310.0638,N,09642.7670,W,0.00,0.00,160613,,,D*72
$GPGGA,183605.400,3310.0638,N,09642.7670,W,2,7,1.95,222.0,M,-24.2,M,0000,0000*62
$GPRMC,183605.400,A,3310.0638,N,09642.7670,W,0.00,0.00,160613,,,D*74
$GPGGA,183605.600,3310.0638,N,09642.7670,W,2,7,1.95,222.0,M,-24.2,M,0000,0000*60
$GPRMC,183605.600,A,3310.0638,N,09642.7670,W,0.00,0.00,160613,,,D*76
$GPGGA,183605.800,3310.0638,N,09642.7670,W,2,7,1.95,222.0,M,-24.2,M,0000,0000*6E
$GPRMC,183605.800,A,3310.0638,N,09642.7670,W,0.01,0.00,160613,,,D*79
$GPGGA,183606.000,3310.0638,N,09642.7670,W,2,7,1.95,222.0,M,-24.2,M,0000,0000*65
$GPRMC,183606.000,A,3310.0638,N,09642.7670,W,0.01,0.00,160613,,,D*72
$GPGGA,183606.400,3310.0638,N,09642.7670,W,2,7,1.95,222.0,M,-24.2,M,0000,0000*61
$GPRMC,183606.400,A,3310.0638,N,09642.7670,W,0.00,0.00,160613,,,D*77
$GPGGA,183606.600,3310.0638,N,09642.7670,W,2,7,1.95,222.0,M,-24.2,M,0000,0000*63
$GPRMC,183606.600,A,3310.0638,N,09642.7670,W,0.00,0.00,160613,,,D*75
$GPGGA,183606.800,3310.0638,N,09642.7670,W,2,7,1.95,222.0,M,-24.2,M,0000,0000*6D
$GPRMC,183606.800,A,3310.0638,N,09642.7670,W,0.01,0.00,160613,,,D*7A
$GPGGA,183607.000,3310.0638,N,09642.7670,W,2,7,1.95,222.0,M,-24.2,M,0000,0000*64
$GPRMC,183607.000,A,3310.0638,N,09642.7670,W,0.01,0.00,160613,,,D*73
$GPGGA,183607.200,3310.0638,N,09642.7670,W,2,7,1.95,222.0,M,-24.2,M,0000,0000*66
$GPRMC,183607.200,A,3310.0638,N,09642.7670,W,0.00,0.00,160613,,,D*70
$GPGGA,183607.400,3310.0638,N,09642.7670,W,2,7,1.95,222.0,M,-24.2,M,0000,0000*60
$GPRMC,183607.400,A,3310.0638,N,09642.7670,W,0.00,0.00,160613,,,D*76
$GPGGA,183607.800,3310.0638,N,09642.7670,W,2,7,1.95,222.0,M,-24.2,M,0000,0000*6C
$GPRMC,183607.800,A,3310.0638,N,09642.7670,W,0.01,0.00,160613,,,D*7B
$GPGGA,183608.000,3310.0638,N,09642.7670,W,2,7,1.95,222.0,M,-24.2,M,0000,0000*6B
$GPRMC,183608.000,A,3310.0638,N,09642.7670,W,0.01,0.00,160613,,,D*7C
$GPGGA,183608.200,3310.0638,N,09642.7670,W,2,7,1.95,222.0,M,-24.2,M,0000,0000*69
$GPRMC,183608.200,A,3310.0638,N,09642.7670,W,0.01,0.00,160613,,,D*7E
$GPRMC,183608.600,A,3310.0638,N,09642.7670,W,0.00,0.00,160613,,,D*7B
$GPGGA,183608.800,3310.0638,N,09642.7670,W,2,7,1.95,222.0,M,-24.2,M,0000,0000*63
$GPRMC,183608.800,A,3310.0638,N,09642.7670,W,0.01,0.00,160613,,,D*74
$GPGGA,183609.000,3310.0638,N,09642.7670,W,2,7,1.95,222.0,M,-24.2,M,0000,0000*6A
$GPRMC,183609.000,A,3310.0638,N,09642.7670,W,0.01,0.00,160613,,,D*7D
$GPGGA,183609.200,3310.0638,N,09642.7670,W,2,7,1.95,222.0,M,-24.2,M,0000,0000*68
$GPRMC,183609.200,A,3310.0638,N,09642.7670,W,0.03,0.00,160613,,,D*7D
$GPGGA,183609.600,3310.0638,N,09642.7670,W,2,7,1.95,222.0,M,-24.2,M,0000,0000*6C
$GPRMC,183609.600,A,3310.0638,N,09642.7670,W,0.01,0.00,160613,,,D*7B
$GPGGA,183609.800,3310.0638,N,09642.7670,W,2,7,1.95,222.0,M,-24.2,M,0000,0000*62
$GPRMC,183609.800,A,3310.0638,N,09642.7670,W,0.02,0.00,160613,,,D*76
$GPGGA,183610.000,3310.0638,N,09642.7670,W,2,7,1.95,222.0,M,-24.2,M,0000,0000*62
$GPRMC,183610.000,A,3310.0638,N,09642.7670,W,0.01,0.00,160613,,,D*75
$GPGGA,183610.200,3310.0638,N,09642.7670,W,2,7,1.95,222.0,M,-24.2,M,0000,0000*60
$GPRMC,183610.200,A,3310.0638,N,09642.7670,W,0.01,0.00,160613,,,D*77
$GPGGA,183610.400,3310.0638,N,09642.7670,W,2,7,1.95,222.0,M,-24.2,M,0000,0000*66
$GPRMC,183610.400,A,3310.0638,N,09642.7670,W,0.00,0.00,160613,,,D*70
$GPGGA,183610.600,3310.0638,N,09642.7670,W,2,7,1.95,222.0,M,-24.2,M,0000,0000*64
$GPRMC,183610.600,A,3310.0638,N,09642.7670,W,0.00,0.00,160613,,,D*72
$GPGGA,183610.800,3310.0638,N,09642.7670,W,2,7,1.95,222.0,M,-24.2,M,0000,0000*6A
$GPRMC,183610.800,A,3310.0638,N,09642.7670,W,0.01,0.00,160613,,,D*7D
$GPGGA,183611.200,3310.0638,N,09642.7670,W,2,7,1.95,222.0,M,-24.2,M,0000,0000*61
$GPRMC,183611.200,A,3310.0638,N,09642.7670,W,0.00,0.00,160613,,,D*77
$GPGGA,183611.400,3310.0638,N,09642.7670,W,2,7,1.95,222.0,M,-24.2,M,0000,0000*67
$GPRMC,183611.400,A,3310.0638,N,09642.7670,W,0.00,0.00,160613,,,D*71
$GPGGA,183611.600,3310.0638,N,09642.7670,W,2,7,1.95,222.0,M,-24.2,M,0000,0000*65
$GPRMC,183611.600,A,3310.0638,N,09642.7670,W,0.01,0.00,160613,,,D*72
$GPGGA,183611.800,3310.0638,N,09642.7670,W,2,7,1.95,222.0,M,-24.2,M,0000,0000*6B
$GPRMC,183611.800,A,3310.0638,N,09642.7670,W,0.02,0.00,160613,,,D*7F
$GPGGA,183612.000,3310.0638,N,09642.7670,W,2,7,1.95,222.0,M,-24.2,M,0000,0000*60
$GPRMC,183612.000,A,3310.0638,N,09642.7670,W,0.01,0.00,160613,,,D*77
$GPGGA,183612.200,3310.0638,N,09642.7670,W,2,7,1.95,222.0,M,-24.2,M,0000,0000*62
$GPRMC,183612.200,A,3310.0638,N,09642.7670,W,0.00,0.00,160613,,,D*74
$GPGGA,183612.400,3310.0638,N,09642.7670,W,2,7,1.95,222.0,M,-24.2,M,0000,0000*64
$GPRMC,183612.400,A,3310.0638,N,09642.7670,W,0.00,0.00,160613,,,D*72
$GPGGA,183612.600,3310.0638,N,09642.7670,W,2,7,1.95,222.0,M,-24.2,M,0000,0000*66
$GPRMC,183612.600,A,3310.0638,N,09642.7670,W,0.01,0.00,160613,,,D*71
$GPGGA,183612.800,3310.0638,N,09642.7670,W,2,7,1.95,222.0,M,-24.2,M,0000,0000*68
$GPRMC,183612.800,A,3310.0638,N,09642.7670,W,0.01,0.00,160613,,,D*7F
$GPGGA,183613.000,3310.0638,N,09642.7670,W,2,7,1.95,222.0,M,-24.2,M,0000,0000*61
$GPRMC,183613.000,A,3310.0638,N,09642.7670,W,0.00,0.00,160613,,,D*77
$GPGGA,183613.400,3310.0638,N,09642.7670,W,2,7,1.95,222.0,M,-24.2,M,0000,0000*65
$GPRMC,183613.400,A,3310.0638,N,09642.7670,W,0.01,0.00,160613,,,D*72
$GPGGA,183613.600,3310.0638,N,09642.7670,W,2,7,1.95,222.0,M,-24.2,M,0000,0000*67
$GPRMC,183613.600,A,3310.0638,N,09642.7670,W,0.01,0.00,160613,,,D*70
$GPGGA,183614.000,3310.0638,N,09642.7670,W,2,7,1.95,222.0,M,-24.2,M,0000,0000*66
$GPRMC,183614.000,A,3310.0638,N,09642.7670,W,0.00,0.00,160613,,,D*70
$GPGGA,183614.200,3310.0638,N,09642.7670,W,2,7,1.95,222.0,M,-24.2,M,0000,0000*64
$GPRMC,183614.200,A,3310.0638,N,09642.7670,W,0.00,0.00,160613,,,D*72
$GPGGA,183614.400,3310.0638,N,09642.7670,W,2,7,1.95,222.0,M,-24.2,M,0000,0000*62
$GPRMC,183614.400,A,3310.0638,N,09642.7670,W,0.00,0.00,160613,,,D*74
$GPGGA,183614.600,3310.0638,N,09642.7670,W,2,7,1.95,222.0,M,-24.2,M,0000,0000*60
$GPRMC,183614.600,A,3310.0638,N,09642.7670,W,0.01,0.00,160613,,,D*77
$GPGGA,183614.800,3310.0638,N,09642.7670,W,2,7,1.95,222.0,M,-24.2,M,0000,0000*6E
$GPRMC,183614.800,A,3310.0638,N,09642.7670,W,0.00,0.00,160613,,,D*78
$GPGGA,183615.000,3310.0638,N,09642.7670,W,2,7,1.95,222.0,M,-24.2,M,0000,0000*67
$GPRMC,183615.000,A,3310.0638,N,09642.7670,W,0.00,0.00,160613,,,D*71
$GPGGA,183615.200,3310.0638,N,09642.7670,W,2,7,1.95,222.0,M,-24.2,M,0000,0000*65
$GPRMC,183615.200,A,3310.0638,N,09642.7670,W,0.02,0.00,160613,,,D*71
$GPGGA,183615.400,3310.0638,N,09642.7670,W,2,7,1.95,222.0,M,-24.2,M,0000,0000*63
$GPRMC,183615.400,A,3310.0638,N,09642.7670,W,0.00,0.00,160613,,,D*75
$GPGGA,183615.600,3310.0638,N,09642.7670,W,2,7,1.95,222.0,M,-24.2,M,0000,0000*61
$GPRMC,183615.600,A,3310.0638,N,09642.7670,W,0.00,0.00,160613,,,D*77
$GPGGA,183615.800,3310.0638,N,09642.7670,W,2,7,1.95,222.0,M,-24.2,M,0000,0000*6F
$GPRMC,183615.800,A,3310.0638,N,09642.7670,W,0.01,0.00,160613,,,D*78
$GPGGA,183616.000,3310.0638,N,09642.7670,W,2,7,1.95,222.0,M,-24.2,M,0000,0000*64
$GPRMC,183616.000,A,3310.0638,N,09642.7670,W,0.01,0.00,160613,,,D*73
$GPGGA,183616.200,3310.0638,N,09642.7670,W,2,7,1.95,222.0,M,-24.2,M,0000,0000*66
$GPRMC,183616.200,A,3310.0638,N,09642.7670,W,0.01,0.00,160613,,,D*71
$GPGGA,183616.600,3310.0638,N,09642.7670,W,2,7,1.95,222.0,M,-24.2,M,0000,0000*62
$GPRMC,183616.600,A,3310.0638,N,09642.7670,W,0.00,0.00,160613,,,D*74
$GPGGA,183616.800,3310.0638,N,09642.7670,W,2,7,1.95,222.0,M,-24.2,M,0000,0000*6C
$GPRMC,183616.800,A,3310.0638,N,09642.7670,W,0.01,0.00,160613,,,D*7B
$GPRMC,183617.200,A,3310.0638,N,09642.7670,W,0.02,0.00,160613,,,D*73
$GPGGA,183617.600,3310.0638,N,09642.7670,W,2,7,1.95,222.0,M,-24.2,M,0000,0000*63
$GPRMC,183617.600,A,3310.0638,N,09642.7670,W,0.01,0.00,160613,,,D*74
$GPGGA,183617.800,3310.0638,N,09642.7670,W,2,7,1.95,222.0,M,-24.2,M,0000,0000*6D
$GPRMC,183617.800,A,3310.0638,N,09642.7670,W,0.00,0.00,160613,,,D*7B
$GPGGA,183618.000,3310.0638,N,09642.7670,W,2,7,1.95,222.0,M,-24.2,M,0000,0000*6A
$GPRMC,183618.000,A,3310.0638,N,09642.7670,W,0.01,0.00,160613,,,D*7D
$GPGGA,183618.200,3310.0638,N,09642.7670,W,2,7,1.95,222.0,M,-24.2,M,0000,0000*68
$GPRMC,183618.200,A,3310.0638,N,09642.7670,W,0.01,0.00,160613,,,D*7F
$GPGGA,183618.400,3310.0638,N,09642.7670,W,2,7,1.95,222.0,M,-24.2,M,0000,0000*6E
$GPRMC,183618.400,A,3310.0638,N,09642.7670,W,0.01,0.00,160613,,,D*79
$GPGGA,183618.600,3310.0638,N,09642.7670,W,2,7,1.95,222.0,M,-24.2,M,0000,0000*6C
$GPRMC,183618.600,A,3310.0638,N,09642.7670,W,0.01,0.00,160613,,,D*7B
$GPGGA,183618.800,3310.0638,N,09642.7670,W,2,7,1.95,222.0,M,-24.2,M,0000,0000*62
$GPRMC,183618.800,A,3310.0638,N,09642.7670,W,0.01,0.00,160613,,,D*75
$GPGGA,183619.000,3310.0638,N,09642.7670,W,2,7,1.95,222.0,M,-24.2,M,0000,0000*6B
$GPRMC,183619.000,A,3310.0638,N,09642.7670,W,0.01,0.00,160613,,,D*7C
$GPGGA,183619.200,3310.0638,N,09642.7670,W,2,7,1.95,222.0,M,-24.2,M,0000,0000*69
$GPRMC,183619.200,A,3310.0638,N,09642.7670,W,0.01,0.00,160613,,,D*7E
$GPGGA,183619.400,3310.0638,N,09642.7670,W,2,7,1.95,222.0,M,-24.2,M,0000,0000*6F
$GPRMC,183619.400,A,3310.0638,N,09642.7670,W,0.01,0.00,160613,,,D*78
$GPGGA,183619.600,3310.0638,N,09642.7670,W,2,7,1.95,222.0,M,-24.2,M,0000,0000*6D
$GPRMC,183619.600,A,3310.0638,N,09642.7670,W,0.01,0.00,160613,,,D*7A
$GPGGA,183620.000,3310.0638,N,09642.7670,W,2,7,1.95,222.0,M,-24.2,M,0000,0000*61
$GPRMC,183620.000,A,3310.0638,N,09642.7670,W,0.01,0.00,160613,,,D*76
$GPGGA,183620.400,3310.0638,N,09642.7670,W,2,7,1.95,222.0,M,-24.2,M,0000,0000*65
$GPRMC,183620.400,A,3310.0638,N,09642.7670,W,0.00,0.00,160613,,,D*73
$GPGGA,183620.800,3310.0638,N,09642.7670,W,2,7,1.95,222.0,M,-24.2,M,0000,0000*69
$GPRMC,183620.800,A,3310.0638,N,09642.7670,W,0.01,0.00,160613,,,D*7E
$GPGGA,183621.000,3310.0638,N,09642.7670,W,2,7,1.95,222.0,M,-24.2,M,0000,0000*60
