$GPRMC,154251.123,V,5108.876,S,05005.979,W,75.3,14.92,100413,,E*62
$GPGGA,154252.123,5108.876,S,05005.979,W,0,00,,,M,,M,,*4B
$GPGLL,5108.876,S,05005.979,W,154253.123,V*2A
$GPVTG,14.92,T,,M,75.3,N,139.4,K*50
$GPRMC,154255.123,V,6958.514,N,07522.239,E,32.4,20.98,100413,,E*6A
$GPGGA,154256.123,6958.514,N,07522.239,E,0,00,,,M,,M,,*4A
$GPGLL,6958.514,N,07522.239,E,154257.123,V*2B
$GPVTG,20.98,T,,M,32.4,N,60.1,K*61
$GPRMC,154259.123,V,0436.784,S,10858.242,W,22.4,6.38,100413,,E*54
$GPGGA,154300.123,0436.784,S,10858.242,W,0,00,,,M,,M,,*45
$GPGLL,0436.784,S,10858.242,W,154301.123,V*24
$GPVTG,6.38,T,,M,22.4,N,41.5,K*59
$GPRMC,154303.123,V,5114.928,N,03702.702,E,56.5,33.26,100413,,E*65
$GPGGA,154304.123,5114.928,N,03702.702,E,0,00,,,M,,M,,*45
$GPGLL,5114.928,N,03702.702,E,154305.123,V*24
$GPVTG,33.26,T,,M,56.5,N,104.6,K*51
$GPRMC,154307.123,V,8153.330,N,02121.208,W,13.6,33.08,100413,,E*79
$GPGGA,154308.123,8153.330,N,02121.208,W,0,00,,,M,,M,,*5F
$GPGLL,8153.330,N,02121.208,W,154309.123,V*3E
$GPVTG,33.08,T,,M,13.6,N,25.2,K*69
$GPRMC,154311.123,V,8742.150,S,03647.415,E,74.7,19.57,100413,,E*7D
$GPGGA,154312.123,8742.150,S,03647.415,E,0,00,,,M,,M,,*55
$GPGLL,8742.150,S,03647.415,E,154313.123,V*34
$GPVTG,19.57,T,,M,74.7,N,138.3,K*57
$GPRMC,154315.123,V,1440.789,N,07631.819,W,67.1,18.42,100413,,E*78
$GPGGA,154316.123,1440.789,N,07631.819,W,0,00,,,M,,M,,*51
$GPGLL,1440.789,N,07631.819,W,154317.123,V*30
$GPVTG,18.42,T,,M,67.1,N,124.3,K*5B
$GPRMC,154319.123,V,4309.204,N,00538.753,W,64.7,27.21,100413,,E*7B
$GPGGA,154320.123,4309.204,N,00538.753,W,0,00,,,M,,M,,*57
$GPGLL,4309.204,N,00538.753,W,154321.123,V*36
$GPVTG,27.21,T,,M,64.7,N,119.9,K*53
$GPRMC,154323.123,V,4819.985,S,10352.539,E,94.3,5.06,100413,,E*4E
$GPGGA,154324.123,4819.985,S,10352.539,E,0,00,,,M,,M,,*51
$GPGLL,4819.985,S,10352.539,E,154325.123,V*30
$GPVTG,5.06,T,,M,94.3,N,174.7,K*68
$GPRMC,154327.123,V,4148.687,N,06002.285,E,46.4,8.18,100413,,E*5C
$GPGGA,154328.123,4148.687,N,06002.285,E,0,00,,,M,,M,,*41
$GPGLL,4148.687,N,06002.285,E,154329.123,V*20
$GPVTG,8.18,T,,M,46.4,N,86.0,K*59
$GPRMC,154331.123,V,2354.950,N,08451.895,W,98.4,3.47,100413,,E*40
$GPGGA,154332.123,2354.950,N,08451.895,W,0,00,,,M,,M,,*53
$GPGLL,2354.950,N,08451.895,W,154333.123,V*32
$GPVTG,3.47,T,,M,98.4,N,182.3,K*6D
$GPRMC,154335.123,V,4942.454,S,01202.038,W,19.2,44.19,100413,,E*6A
$GPGGA,154336.123,4942.454,S,01202.038,W,0,00,,,M,,M,,*4E
$GPGLL,4942.454,S,01202.038,W,154337.123,V*2F
$GPVTG,44.19,T,,M,19.2,N,35.5,K*61
$GPRMC,154339.123,V,1427.157,N,01603.366,E,4.7,33.51,100413,,E*5C
$GPGGA,154340.123,1427.157,N,01603.366,E,0,00,,,M,,M,,*40
$GPGLL,1427.157,N,01603.366,E,154341.123,V*21
$GPVTG,33.51,T,,M,4.7,N,8.7,K*68
$GPRMC,154343.123,V,2617.550,S,00410.394,W,93.5,15.66,100413,,E*6F
$GPGGA,154344.123,2617.550,S,00410.394,W,0,00,,,M,,M,,*46
$GPGLL,2617.550,S,00410.394,W,154345.123,V*27
$GPVTG,15.66,T,,M,93.5,N,173.1,K*5F
$GPRMC,154347.123,V,3247.748,S,01111.838,W,4.4,5.75,100413,,E*64
$GPGGA,154348.123,3247.748,S,01111.838,W,0,00,,,M,,M,,*49
$GPGLL,3247.748,S,01111.838,W,154349.123,V*28
$GPVTG,5.75,T,,M,4.4,N,8.2,K*5D
$GPRMC,154351.123,V,7444.586,N,10139.092,W,98.2,20.59,100413,,E*77
$GPGGA,154352.123,7444.586,N,10139.092,W,0,00,,,M,,M,,*5C
$GPGLL,7444.586,N,10139.092,W,154353.123,V*3D
$GPVTG,20.59,T,,M,98.2,N,181.9,K*5C
$GPRMC,154355.123,V,2129.436,N,11747.095,E,35.3,16.71,100413,,E*60
$GPGGA,154356.123,2129.436,N,11747.095,E,0,00,,,M,,M,,*42
$GPGLL,2129.436,N,11747.095,E,154357.123,V*23
$GPVTG,16.71,T,,M,35.3,N,65.4,K*63
$GPRMC,154359.123,V,0832.267,S,12254.564,E,7.2,31.88,100413,,E*4E
$GPGGA,154400.123,0832.267,S,12254.564,E,0,00,,,M,,M,,*57
$GPGLL,0832.267,S,12254.564,E,154401.123,V*36
$GPVTG,31.88,T,,M,7.2,N,13.4,K*51
$GPRMC,154403.123,V,8145.890,N,00322.274,W,47.1,43.62,100413,,E*79
$GPGGA,154404.123,8145.890,N,00322.274,W,0,00,,,M,,M,,*5A
$GPGLL,8145.890,N,00322.274,W,154405.123,V*3B
$GPVTG,43.62,T,,M,47.1,N,87.2,K*6C
$GPRMC,154407.123,V,3033.673,N,16941.951,W,96.8,2.86,100413,,E*4B
$GPGGA,154408.123,3033.673,N,16941.951,W,0,00,,,M,,M,,*5A
$GPGLL,3033.673,N,16941.951,W,154409.123,V*3B
$GPVTG,2.86,T,,M,96.8,N,179.3,K*67
$GPRMC,154411.123,V,3401.673,N,03939.827,W,86.5,40.68,100413,,E*78
$GPGGA,154412.123,3401.673,N,03939.827,W,0,00,,,M,,M,,*5F
$GPGLL,3401.673,N,03939.827,W,154413.123,V*3E
$GPVTG,40.68,T,,M,86.5,N,160.1,K*57
$GPRMC,154415.123,V,7227.956,N,06920.439,E,11.6,19.56,100413,,E*62
$GPGGA,154416.123,7227.956,N,06920.439,E,0,00,,,M,,M,,*49
$GPGLL,7227.956,N,06920.439,E,154417.123,V*28
$GPVTG,19.56,T,,M,11.6,N,21.5,K*6B
$GPRMC,154419.123,V,1708.486,N,07306.219,W,64.4,15.70,100413,,E*71
$GPGGA,154420.123,1708.486,N,07306.219,W,0,00,,,M,,M,,*5B
$GPGLL,1708.486,N,07306.219,W,154421.123,V*3A
$GPVTG,15.70,T,,M,64.4,N,119.2,K*5E
$GPRMC,154423.123,V,2925.864,S,06745.954,E,96.4,15.71,100413,,E*79
$GPGGA,154424.123,2925.864,S,06745.954,E,0,00,,,M,,M,,*52
$GPGLL,2925.864,S,06745.954,E,154425.123,V*33
$GPVTG,15.71,T,,M,96.4,N,178.5,K*52
$GPRMC,154427.123,V,0447.150,N,05419.181,E,25.0,38.12,100413,,E*6A
$GPGGA,154428.123,0447.150,N,05419.181,E,0,00,,,M,,M,,*4F
$GPGLL,0447.150,N,05419.181,E,154429.123,V*2E
$GPVTG,38.12,T,,M,25.0,N,46.3,K*6E
$GPRMC,154431.123,V,5739.366,N,13326.967,E,14.1,4.14,100413,,E*53
$GPGGA,154432.123,5739.366,N,13326.967,E,0,00,,,M,,M,,*40
$GPGLL,5739.366,N,13326.967,E,154433.123,V*21
$GPVTG,4.14,T,,M,14.1,N,26.0,K*51
$GPRMC,154435.123,V,2901.724,S,00252.646,E,25.4,24.04,100413,,E*72
$GPGGA,154436.123,2901.724,S,00252.646,E,0,00,,,M,,M,,*55
$GPGLL,2901.724,S,00252.646,E,154437.123,V*34
$GPVTG,24.04,T,,M,25.4,N,47.0,K*62
$GPRMC,154439.123,V,8344.367,N,13753.543,E,31.9,35.96,100413,,E*62
$GPGGA,154440.123,8344.367,N,13753.543,E,0,00,,,M,,M,,*4B
$GPGLL,8344.367,N,13753.543,E,154441.123,V*2A
$GPVTG,35.96,T,,M,31.9,N,59.2,K*6C
$GPRMC,154443.123,V,8629.165,N,05411.803,W,73.8,23.79,100413,,E*79
$GPGGA,154444.123,8629.165,N,05411.803,W,0,00,,,M,,M,,*58
$GPGLL,8629.165,N,05411.803,W,154445.123,V*39
$GPVTG,23.79,T,,M,73.8,N,136.7,K*50
$GPRMC,154447.123,V,7558.106,S,16147.474,W,76.5,41.61,100413,,E*62
$GPGGA,154448.123,7558.106,S,16147.474,W,0,00,,,M,,M,,*4E
$GPGLL,7558.106,S,16147.474,W,154449.123,V*2F
$GPVTG,41.61,T,,M,76.5,N,141.7,K*55
